State,District,Station Name,Address,Contact,Services,Final Timing,Map URL,Latitude,Longitude
Delhi,New Delhi,66KV Grid Sub Station,Sector 3 Rohini Near NDPL Shakti Deep Building,9818100536,IEC 60309AC TYPE 1,10:00 AM - 07:00 PM,"https://www.google.com/maps/dir/Current+Location/28.7041,77.1025",28.7041,77.1025
Delhi,New Delhi,EESL - Electric Vehicle Charging Station,Opposite Anusandhan Bhawan Next To Mavalankar Auditorium Chelmsford Club Parking Rafi Marg,7906001402,CCS-IICHAdeMODCAC TYPE 2,10:00 AM - 07:00 PM,"https://www.google.com/maps/dir/Current+Location/28.6139,77.209",28.6139,77.209
Delhi,New Delhi,Tata Power - Intimate Filling Soami Nagar Charging Station,"Panchsheel Marg, Soami Nagar North",18008332233,CCS-IICHAdeMO,12:00 AM - 11:59 PM,"https://www.google.com/maps/dir/Current+Location/28.542718,77.225306",28.542718,77.225306
Delhi,New Delhi,Tata Power- Citi Fuels Virender Nagar New Delhi Charging Station,IOCL OPP.-VIRENDER NAGAR NEAR BHARATI COLLEGE,18008332233,CCS-II,12:00 AM - 11:59 PM,"https://www.google.com/maps/dir/Current+Location/28.6472799,76.813065",28.6472799,76.813065
Delhi,New Delhi,Tata Power - Sabarwal Charging Station,"IOCL - Sabarwal Service Station, RK Puram, Tamil Sangam Marg, Sector 5, Rama Krishna Puram",8527000290,CCS-II,12:00 AM - 11:59 PM,"https://www.google.com/maps/dir/Current+Location/28.567369,77.175281",28.567369,77.175281
Delhi,New Delhi,Tata Power - Nineteenth Hole Service Charging station,DR. ZAKIR HUSSAIN ROAD NEAR GOLF COURSEN,8527000290,CCS-II,12:00 AM - 11:59 PM,"https://www.google.com/maps/dir/Current+Location/28.6020461,77.234953",28.6020461,77.234953
Delhi,New Delhi,Tata Power - Irwin Road - Connaught Place Charging Station,"Baba Kharak Singh Rd, Hanuman Road Area, Connaught Place",8527000290,CCS-IICHAdeMO,12:00 AM - 11:59 PM,"https://www.google.com/maps/dir/Current+Location/28.62932,77.21262",28.62932,77.21262
Delhi,New Delhi,Tata Power - Rajkumar Charging Station,"Rajkumar Service Station,Iit Crossing",7419894404,CCS-IIBharat DC-001,10:00 AM - 07:00 PM,"https://www.google.com/maps/dir/Current+Location/28.583376,77.191379",28.583376,77.191379
Delhi,New Delhi,Tata Power - Risal Petro Charging Station,"Opposite Sta TPT Authority, Laldora, Sant Nagar, Burari Road, Jharoda Majra",8527000290,CCS-II,12:00 AM - 11:59 PM,"https://www.google.com/maps/dir/Current+Location/28.7324265,77.198624",28.7324265,77.198624
Delhi,New Delhi,IOCL - Aaui Charging Station,IOCL At Plot No 1 I P Estate Ring Road,18008332233,CCS-IIBharat DC-001,10:00 AM - 07:00 PM,"https://www.google.com/maps/dir/Current+Location/28.6179662,77.2487894",28.6179662,77.2487894
Delhi,New Delhi,Tata Power - Bhasin Charging Station,IOCL Dr. K/S Krishnan Road Near NPL Pusa Institute New Delhi,8527000290,CCS-II,12:00 AM - 11:59 PM,"https://www.google.com/maps/dir/Current+Location/28.637547,77.174571",28.637547,77.174571
Delhi,New Delhi,Tata Power - Komal & Bros Charging Station,"Plot No. 10 Community Centre Mandawali Fazalpur Lock No 556 57A Patparganj New Delhi61, Community Center, Basant Nagar",7419853731,CCS-IIBharat DC-001,10:00 AM - 07:00 PM,"https://www.google.com/maps/dir/Current+Location/28.55773691,77.15794",28.55773691,77.15794
Delhi,New Delhi,Tata Power - Malwa Automobiles Prashant Vihar Charging Station,Showroom No. A1 16 Prashant Vihar Sector 14 Rohini,18008332233,CCS-IICHAdeMO,12:00 AM - 11:59 PM,"https://www.google.com/maps/dir/Lucknow,+Uttar+Pradesh/28.708659,77.136715/@27.7482755,76.3999227,7z/data=!3m1!4b1!4m8!4m7!1m5!1m1!1s0x399bfe8c8d903723:0xdc4a0d1e121bf0e5!2m2!1d80.9462214!2d26.8467953!1m0?entry=ttu&g_ep=EgoyMDI1MDQzMC4xIKXMDSoASAFQAw%3D%3D",27.7482755,76.3999227
Delhi,New Delhi,EESL - Moti Bagh Charging Station,"NDMC Barat Ghar – Moti Bagh, E Block, Moti Bagh",7503505019,CCS-IICHAdeMOAC TYPE 2Bharat DC-001,10:00 AM - 07:00 PM,"https://www.google.com/maps/dir/Current+Location/28.582333,77.181061",28.582333,77.181061
Delhi,New Delhi,UTCL- Kalkaji Story Charging Station,A 121 DOUBLE STORY KALKAJI,8045688448,AC PLUG POINT,11:59 AM - 12:00 PM,"https://www.google.com/maps/dir/Current+Location/28.63243,77.175699",28.63243,77.175699
Delhi,New Delhi,EES - jor bagh market,Jor Bagh Market Nmdc Parking,,Bharat AC001,10:00 AM - 07:00 PM,"https://www.google.com/maps/dir/Current+Location/28.586252,77.213194",28.586252,77.213194
Delhi,New Delhi,EESL - Lodhi Garden Charging Station,Lodhi Garden NMDC Parking,18001803580,CCS-IICHAdeMOAC TYPE 2,10:00 AM - 07:00 PM,"https://www.google.com/maps/dir/Current+Location/28.592914,77.220242",28.592914,77.220242
Delhi,New Delhi,Kazam - Press Corner Charging Station,Press Corner,9711344849,AC PLUG POINT,24 Hours,"https://www.google.com/maps/dir/Current+Location/28.61731,77.213658",28.61731,77.213658
Delhi,New Delhi,CESL - Chelmsford Club Charging Station,"Outside Chelmsford Club/ Opposite CSIR Building, Rafi Marg, Sansad Marg Area",7906001402,CCS-IICHAdeMOAC TYPE 2Bharat DC-001,12:00 AM - 11:59 PM,"https://www.google.com/maps/dir/Current+Location/28.6177877,77.210801",28.6177877,77.210801
Delhi,New Delhi,EV Plugin Charge Cross River Mall Charging Station,"Maharaja Surajmal Marg, Vishwas Nagar Extension, Maharaja Surajmal Marg, Vishwas Nagar Extension, Vishwas Nagar, Shahdara Shahdara",7042113345,CCS-IIAC TYPE 2GB/T,10:00 AM - 07:00 PM,"https://www.google.com/maps/dir/Current+Location/28.65740137,77.30219",28.65740137,77.30219
Delhi,New Delhi,CESL – Sushma Swaraj Bhawan Charging Station,"Back Side Sushma Swaraj Bhawan, Build Parking, Chanakyapuri",7906001402,CCS-IICHAdeMOAC TYPE 2,12:00 AM - 11:59 PM,"https://www.google.com/maps/dir/Current+Location/28.736887,77.263389",28.736887,77.263389
Delhi,New Delhi,Tata Power - Bedi Saxena Delhi Charging Station,"IOCL B-88-5, 86-5, Sat Guru Ram Singh Rd, Block B, Mayapuri Industrial Area Phase I, Mayapuri,",18008332233,CCS-II,12:00 AM - 11:59 PM,"https://www.google.com/maps/dir/Current+Location/28.627092,77.121841",28.627092,77.121841
Delhi,New Delhi,CSC minto Charging Station(Private Chager ),"Dr Spm Civic Centre, Minto Road, Skd Basti, Press Enclave, Ajmeri Gate",18008332233,Bharat DC-001,10:00 AM - 07:00 PM,"https://www.google.com/maps/dir/Current+Location/28.63733,77.221624",28.63733,77.221624
Delhi,New Delhi,UTCL- Naraina Charging Station,WZ 572k Naraina Village,9958765438,AC PLUG POINT,11:59 AM - 12:00 PM,"https://www.google.com/maps/dir/Current+Location/28.6321091,77.137268",28.6321091,77.137268
Delhi,New Delhi,Tata Power - Autovikas Motinagar Charging Station,No. 57 Rama Rd Block B Moti Nagar,8527000290,CCS-IIBharat DC001 GB/TCHAdeMO,12:00 AM - 11:59 PM,"https://www.google.com/maps/dir/Current+Location/28.6636726,77.156076",28.6636726,77.156076
Delhi,New Delhi,"Tata Power - Treo, Safdarjung Enclave Charging Station","A 2/14, Lower Ground Floor Main Africa Avenue Rd",7045137532,CHAdeMO,10:00 AM - 08:00 PM,"https://www.google.com/maps/dir/Current+Location/28.638239,77.240158",28.638239,77.240158
Delhi,New Delhi,BECIL - Paul Motor Chgarging Station,Speedways Service Centre IndianOil E-Charge Station Pump Jail Road Hari Nagar Mayapuri Opposite,7419894762,Bharat AC001,24 Hours,"https://www.google.com/maps/dir/Current+Location/28.624363,77.204853",28.624363,77.204853
Delhi,New Delhi,Tata Power - Sparsh Dwarka Charging Station,"RZ A- 70, Garg Plaza, Dabri - Palam Road, Dwarka",8527000290,CCS-IICHAdeMO,12:00 AM - 11:59 PM,"https://www.google.com/maps/dir/Current+Location/28.60585,77.08133",28.60585,77.08133
Delhi,New Delhi,Tata Power - Westside Lajpat Nagar Charging Station,A-15 Alankar Cinema Building Feroze Gandhi Marg,18008332233,CCS-IICHAdeMO,12:00 AM - 11:59 PM,"https://www.google.com/maps/dir/Current+Location/28.578701,77.203118",28.578701,77.203118
Delhi,New Delhi,Tata Power - Chitra Service Station,"Chitra Service Station, Dwarka,Sector-4",9599116621,CCS-IIBharat DC-001,10:00 AM - 07:00 PM,"https://www.google.com/maps/dir/Lucknow,+Uttar+Pradesh/28.7041,77.1025/@27.7482755,76.3829722,7z/data=!3m1!4b1!4m8!4m7!1m5!1m1!1s0x399bfe8c8d903723:0xdc4a0d1e121bf0e5!2m2!1d80.9462214!2d26.8467953!1m0?entry=ttu&g_ep=EgoyMDI1MDQzMC4xIKXMDSoASAFQAw%3D%3D",27.7482755,76.3829722
Delhi,New Delhi,Tata Power - Khairwal Charging Station,"Khairwal Petroleum,Punjabi Bagh Transport Centre Punjabi Bagh",9818061061,CCS-IIBharat DC-001,10:00 AM - 07:00 PM,"https://www.google.com/maps/dir/Current+Location/28.553,77.0944",28.553,77.0944
Delhi,New Delhi,CESL - H Block Sarita Vihar Charging Station,Sarita Vihar,9868904786,CCS-IIBharat AC001CHAdeMOAC TYPE 2,12:00 AM - 11:59 PM,"https://www.google.com/maps/dir/Current+Location/28.531119,77.311217",28.531119,77.311217
Delhi,New Delhi,EESL - Hauz Khas Village Charging Station,"SDMC Parking, Hauz Khas Village",18001803580,CCS-IICHAdeMOAC TYPE 2DCGBTAC TYPE 1,12:00 AM - 11:59 PM,"https://www.google.com/maps/dir/Current+Location/28.55447,77.19563",28.55447,77.19563
Delhi,New Delhi,CESL - DTC Kalkaji Depot Charging Station,"Rashmi Auto,Kalkaji Lock No 561",7419889526,CCS-IIBharat AC001CHAdeMOAC TYPE 2,12:00 AM - 11:59 PM,"https://www.google.com/maps/dir/Current+Location/28.538666,77.266986",28.538666,77.266986
Delhi,New Delhi,CESL – DTC Rajghat – 1 Depot Charging Station,"CESL – DTC EV Plaza, Rajghat – 1 DTC Depot",7419627407,CCS-IIBharat AC001CHAdeMOAC TYPE 2Bharat D,12:00 AM - 11:59 PM,"https://www.google.com/maps/dir/Current+Location/28.640256,77.25728",28.640256,77.25728
Delhi,New Delhi,NTPC - Hotel The Ashok (Private - Charger),"50, Niti Marg, Diplomatic Enclave, Chanakyapuri",1126110101,Bharat AC001Bharat DC-001,12:00 AM - 11:59 PM,"https://www.google.com/maps/dir/Current+Location/28.597071,77.195828",28.597071,77.195828
Delhi,New Delhi,Tata Power - Fortune Service Centre,"Fortune S S,Sec 19 Rohini New Delhi. Lock Code - I - 374",7419853563,CCS-IIBharat DC-001,10:00 AM - 07:00 PM,"https://www.google.com/maps/dir/Current+Location/28.727309,77.142992",28.727309,77.142992
Delhi,New Delhi,Tata Power - Welcome Motors Saket Charging Station,IOCL Saket Disst. Centre,9891802848,CCS-IICHAdeMO,12:00 AM - 11:59 PM,"https://www.google.com/maps/dir/Current+Location/28.527934,77.215635",28.527934,77.215635
Delhi,New Delhi,Tata Power - Hundred Percent Charging Station Station,"IOCL Dwarka, Sector 9, Dwarka, New Delhi",8527000290,CCS-IICHAdeMO,12:00 AM - 11:59 PM,"https://www.google.com/maps/dir/Current+Location/28.578641,77.05962",28.578641,77.05962
Delhi,New Delhi,Tata Power - Sagar Motors Charging Station,No ZB/43 487 & ZB 44 487 Dilshad Garden,8527000290,CCS-IICHAdeMO,12:00 AM - 11:59 PM,"https://www.google.com/maps/dir/Current+Location/28.676246,77.31768",28.676246,77.31768
Delhi,New Delhi,Tata Power- Tikri Gas Delhi Charging Station,IOCL - Rohtak Road Block C Tyagi Vihar Ghevra,18008332233,CCS-IICHAdeMO,12:00 AM - 11:59 PM,"https://www.google.com/maps/dir/Lucknow,+Uttar+Pradesh/28.686885,76.984929/@27.7228876,76.3243809,7z/data=!3m1!4b1!4m8!4m7!1m5!1m1!1s0x399bfe8c8d903723:0xdc4a0d1e121bf0e5!2m2!1d80.9462214!2d26.8467953!1m0?entry=ttu&g_ep=EgoyMDI1MDQzMC4xIKXMDSoASAFQAw%3D%3D",27.7228876,76.3243809
Delhi,New Delhi,HPCL Badarpur Service Gazipur Charging Station,Integrated Freight Complex Mayur Vihar Phase III Gharoli,8527000290,CCS-II,12:00 AM - 12:00 PM,"https://www.google.com/maps/dir/Current+Location/28.619703,77.341184",28.619703,77.341184
Delhi,New Delhi,Tata Power - Delhi Punjab Fuel Charging Station,"Singhu Border , 15/1 Gt.Karnal RD. Singhu Border, Po, Narela",18008332233,CCS-II,12:00 AM - 12:00 PM,"https://www.google.com/maps/dir/Current+Location/28.85588,77.1245",28.85588,77.1245
Delhi,New Delhi,"Worldmark 2, Aerocity",Aerocity,,,12:00 AM - 12:00 PM,"https://www.google.com/maps/dir/Current+Location/28.54948,77.12137",28.54948,77.12137
Delhi,New Delhi,REVOS - Divya Charging Station,C195 Divya Jyoti Apartment Sector 19 Rohini,9818081611,AC PLUG POINT,11:59 AM - 12:00 PM,"https://www.google.com/maps/dir/Lucknow,+Uttar+Pradesh/28.738309,77.140492/@27.7485835,76.4004997,7z/data=!3m1!4b1!4m8!4m7!1m5!1m1!1s0x399bfe8c8d903723:0xdc4a0d1e121bf0e5!2m2!1d80.9462214!2d26.8467953!1m0?entry=ttu&g_ep=EgoyMDI1MDQzMC4xIKXMDSoASAFQAw%3D%3D",27.7485835,76.4004997
Delhi,New Delhi,Tata Power - Priyanka Charging Station,"Priyanka Filling Station, Rohini",18008332233,CCS-II,10:00 AM - 07:00 PM,"https://www.google.com/maps/dir/Lucknow,+Uttar+Pradesh/28.725041,77.125741/@27.7593042,76.3933975,7z/data=!3m1!4b1!4m8!4m7!1m5!1m1!1s0x399bfe8c8d903723:0xdc4a0d1e121bf0e5!2m2!1d80.9462214!2d26.8467953!1m0?entry=ttu&g_ep=EgoyMDI1MDQzMC4xIKXMDSoASAFQAw%3D%3D",27.7593042,76.3933975
Delhi,New Delhi,Electric Vehicle - Janakpuri Charging Station,"Basement 1 And 2 District Center, Janakpuri",9990565638,Bharat AC001,10:00 AM - 07:00 PM,"https://www.google.com/maps/dir/Current+Location/28.625591,77.100933",28.625591,77.100933
Delhi,New Delhi,CESL - GK-2 Charging Station,"SDMC Parking, GK-2 M Block Near Canara Bank",,CCS-IICHAdeMOAC TYPE 2,12:00 AM - 11:59 PM,"https://www.google.com/maps/dir/Current+Location/28.547217,77.244324",28.547217,77.244324
Delhi,New Delhi,CESL - N Block GK-1 Charging Station,"Block N, Greater Kailash I, Greater Kailash,",9319300301,CCS-IICHAdeMOAC TYPE 2Bharat DC-001,12:00 AM - 11:59 PM,"https://www.google.com/maps/dir/Current+Location/28.556608,77.232732",28.556608,77.232732
Delhi,New Delhi,NDSE Grid BRPL Charging Station,"NDSE Grid, Adjacent To South Extension Metro Station (Magenta Line)",18008332233,GB/T,10:00 AM - 07:00 PM,"https://www.google.com/maps/dir/Current+Location/28.568632,77.219824",28.568632,77.219824
Delhi,New Delhi,EESL - Dilli Haat Charging Station,"NMDC Parking, Dilli Haat, West Kidwai Nagar",18001803580,AC TYPE 2,10:00 AM - 07:00 PM,"https://www.google.com/maps/dir/Current+Location/28.572793,77.208662",28.572793,77.208662
Delhi,New Delhi,CESL - Charak Palika Hospital,"NDMC Parking, Charak Palika Hospital, C 7 Lane, Moti Bagh 1, Block F, Moti Bagh,",,CCS-IICHAdeMOAC TYPE 2Bharat DC-001,12:00 AM - 11:59 PM,"https://www.google.com/maps/dir/Current+Location/28.585367,77.17755",28.585367,77.17755
Delhi,New Delhi,EESL- Khanna Market 1,"NDMC Parking, Opposite Goel Opticals, Khanna Market, Aliganj, Lodhi Colony,",,Bharat AC001,10:00 AM - 07:00 PM,"https://www.google.com/maps/dir/Current+Location/28.580532,77.221048",28.580532,77.221048
Delhi,New Delhi,CESL- Palika Maternity Hospital Charging Station,"Palika Maternity Hospital, Block 11, Lodhi Colony, Near Khanna Market",,Bharat AC001,12:00 AM - 11:59 PM,"https://www.google.com/maps/dir/Current+Location/28.583518,77.222057",28.583518,77.222057
Delhi,New Delhi,EESL - Jor Bagh Market,"NDMC Parking, Outside RWA Park, Jor Bagh Market, Jor Bagh Colony",,Bharat AC001,10:00 AM - 07:00 PM,"https://www.google.com/maps/dir/Current+Location/28.588117,77.217564",28.588117,77.217564
Delhi,New Delhi,CESL - Lodhi Garden Charging Station,"NDMC Parking, Gate No. 1, Lodhi Gardens, Lodhi Estate, Lodhi Road,",,Bharat DC-001,12:00 AM - 11:59 PM,"https://www.google.com/maps/dir/Current+Location/28.590402,77.220192",28.590402,77.220192
Delhi,New Delhi,EESL - Khan Market Charging Station,"NDMC Parking, Khan Market,",18008332233,Bharat DC-001,11:59 AM - 12:00 PM,"https://www.google.com/maps/dir/Current+Location/28.600324,77.226883",28.600324,77.226883
Delhi,New Delhi,CESL- FICCI Chowk Charging Station,"ICCI, FICCI Chowk, Mandi House, Todermal Road Area, Mandi House,",,GB/T,12:00 AM - 11:59 PM,"https://www.google.com/maps/dir/Current+Location/28.626695,77.231943",28.626695,77.231943
Delhi,New Delhi,Talkatora Stadium Charging Station,Talkatora Stadium Presidents Estate,,Bharat DC-001,Closed Now,"https://www.google.com/maps/dir/Current+Location/28.622004,77.194962",28.622004,77.194962
Delhi,New Delhi,CESL- Press Club Charging Station,"Press Club Of India, 1, Raisina Road, Windsor Place",,Bharat AC001,12:00 AM - 11:59 PM,"https://www.google.com/maps/dir/Current+Location/28.617517,77.213919",28.617517,77.213919
Delhi,New Delhi,EESL - Janpath Guest House Charging Station,"Janpath Guest House, Connaught Place, New Delhi",18001803580,GB/T,10:00 AM - 07:00 PM,"https://www.google.com/maps/dir/Current+Location/28.627546,77.219769",28.627546,77.219769
Delhi,New Delhi,EESL - Indian Coffee House Charging Station,"Indian Coffee House, Connaught Place,",18001803580,Bharat DC001 GB/T,10:00 AM - 07:00 PM,"https://www.google.com/maps/dir/Current+Location/28.628528,77.21946",28.628528,77.21946
Delhi,New Delhi,CESL- Palika Kendra Charging Station,"Near NDMC Office, Palika Kendra,",,Bharat AC001,12:00 AM - 11:59 PM,"https://www.google.com/maps/dir/Current+Location/28.6285,77.217046",28.6285,77.217046
Delhi,New Delhi,EESL - Block H,"Block-H Connaught Place, TRUMP AND GATES H-108, 3RD FLOOR,CONNAUGHT PLACE, Above UCO Bank, Block H,",,GB/T,10:00 AM - 07:00 PM,"https://www.google.com/maps/dir/Current+Location/28.63407,77.217683",28.63407,77.217683
Delhi,New Delhi,CESL - Shanker Market Charging Station,"Fire Bridge Lane, Barakambha Road",,CCS-IICHAdeMOAC TYPE 2,12:00 AM - 11:59 PM,"https://www.google.com/maps/dir/Current+Location/28.633733,77.22353",28.633733,77.22353
Delhi,New Delhi,EESL- Snow White Charging Station,"Near Snow White, Block D, Inner Circle, Connaught Place",,Bharat AC001,12:00 AM - 11:59 PM,"https://www.google.com/maps/dir/Current+Location/28.63388,77.221078",28.63388,77.221078
Delhi,New Delhi,CESL - Block B Charging Station,"Near Woodland Showroom, Block B, Inner Circle, Connaught Place",,Bharat DC-001,12:00 AM - 11:59 PM,"https://www.google.com/maps/dir/Current+Location/28.634371,77.2195",28.634371,77.2195
Delhi,New Delhi,TML - Go Auto Tughlakabad(WS) Charging Station,"D14/5, Industrial Area Ma Anandmayee Marg Okhla, One, Okhla Industrial Area,",7419862593,GB/T,10:00 AM - 07:00 PM,"https://www.google.com/maps/dir/Current+Location/28.52687,77.27284",28.52687,77.27284
Delhi,New Delhi,IGL - Kakanagar Charging Station,"Kaka Nagar, India Gate, New Delhi,",18008332233,Bharat DC-001,10:00 AM - 07:00 PM,"https://www.google.com/maps/dir/Current+Location/28.60386,77.23944",28.60386,77.23944
Delhi,New Delhi,TATA - Croma Rajouri Garden Charging Station,"Croma, Rajouri Garden, Block B, No. 57, Rama Rd, Moti Nagar, Block B, Najafgarh Road Industrial Area, New Delhi",,Bharat DC-001,12:00 AM - 11:59 PM,"https://www.google.com/maps/dir/Current+Location/28.6459,77.12616",28.6459,77.12616
Delhi,New Delhi,EV Plugin Charge Cross River Mall Charging Station,"Cross River Mall Maharaja Surajmal Marg Vishwas Nagar Extension, Vishwas Nagar, Shahdara New Delhi",7042113345,GB/TCCS-IIAC TYPE 2,10:00 AM - 07:00 PM,"https://www.google.com/maps/dir/Current+Location/28.657537,77.302279",28.657537,77.302279
Delhi,New Delhi,IOCL - Kingsway Charging Station,Lock No 985 The Mall Road,9810048048,Bharat DC-001,12:00 AM - 11:59 PM,"https://www.google.com/maps/dir/Current+Location/28.700703,77.213143",28.700703,77.213143
Delhi,New Delhi,EESL - Ndmc Outside Charging Station,"Ndmc Outside, Ess 33/11kv Netaji Nagar",8527000290,CCS-IIBharat AC001CHAdeMOGBTAC TYPE 2AC,12:00 AM - 12:00 PM,"https://www.google.com/maps/dir/Current+Location/28.660691,77.22356",28.660691,77.22356
Delhi,New Delhi,"Tata Power - Videocon Tower, Jhandewalan Charging Station",E3/15 Block E3 Jhandewalan Extension Jhandewalan,8527000290,CCS-IIBharat DC-001,12:00 AM - 11:59 PM,"https://www.google.com/maps/dir/Current+Location/28.644917,77.202514",28.644917,77.202514
Delhi,New Delhi,Naniwala Bagh Commercial Complex Charging Station,Commercial Complex Azadpur,8527000290,CCS-IIAC PLUG POINT,12:00 AM - 11:59 PM,"https://www.google.com/maps/dir/Current+Location/28.708549,77.181948",28.708549,77.181948
Delhi,New Delhi,Tata Power - GEE KAY SERVICES Shahdara Charging Station,"IOCL Shahdara, GT Road, Seelampur, Shahdara",8527000290,Bharat DC-001,12:00 AM - 11:59 PM,"https://www.google.com/maps/dir/Current+Location/28.671177,77.270385",28.671177,77.270385
Delhi,New Delhi,Tata Power - The Park Parliament Street Charging Station,15 Parliament Street,9246419559,CCS-IIAC TYPE 2,12:00 AM - 11:59 PM,"https://www.google.com/maps/dir/Current+Location/28.628909,77.216117",28.628909,77.216117
Delhi,New Delhi,Tata Power - Netaji Subhash Place Charging Station,MCD Netaji Subhash Place Pitampura,8527000290,CCS-IIAC TYPE 2,12:00 AM - 11:59 PM,"https://www.google.com/maps/dir/Current+Location/28.696323,77.152547",28.696323,77.152547
Delhi,New Delhi,HPCL - Puran Charging Station,Block 3 Kirti Nagar Industrial Area Kirti Nagar,9223581898,CCS-II,12:00 AM - 12:00 PM,"https://www.google.com/maps/dir/Current+Location/28.653693,77.147393",28.653693,77.147393
Delhi,New Delhi,Tata Power - Tanga Stand Charging Station,MCD Parking Tanga Stand Road Motinagar Metro Station Moti Nagar,8527000290,CCS-IICHAdeMO,12:00 AM - 11:59 PM,"https://www.google.com/maps/dir/Current+Location/28.659123,77.143639",28.659123,77.143639
Delhi,New Delhi,Tata Power - Vardhaman Times Plaza Charging Station,"LG 1,Vardhaman Times Plaza, Plot No.13,Saint Nagar, Pitampura",8527000290,CCS-IIBharat DC001 GB/T,12:00 AM - 11:59 PM,"https://www.google.com/maps/dir/Lucknow,+Uttar+Pradesh/28.689621,77.13288/@27.7354711,76.3940668,7z/data=!3m1!4b1!4m8!4m7!1m5!1m1!1s0x399bfe8c8d903723:0xdc4a0d1e121bf0e5!2m2!1d80.9462214!2d26.8467953!1m0?entry=ttu&g_ep=EgoyMDI1MDQzMC4xIKXMDSoASAFQAw%3D%3D",27.7354711,76.3940668
Delhi,New Delhi,"Tata Power - PVR Naraina, Commercial Complex Charging Station",Community Center Goswami Girdhari Lal Marg Industrial Area Phase I Block B Naraina Industrial Area Phase 1 Naraina New Delhi,8527000290,CCS-IIAC TYPE 2,12:00 AM - 11:59 PM,"https://www.google.com/maps/dir/Current+Location/28.639002,77.138019",28.639002,77.138019
Delhi,New Delhi,UTPL-EV- Charging Station,"J4XC+555, Block J, Rajouri Garden, New Delhi, Delhi, 110027",18008330809,AC PLUG POINT,24 Hours,"https://www.google.com/maps/dir/Current+Location/28.6459,77.12616",28.6459,77.12616
Delhi,New Delhi,Manglam Place Charging Station,MCD Parking Near Mangalam Palace Rohini Sector 3 110085,8527000290,CCS-II,12:00 AM - 12:00 PM,"https://www.google.com/maps/dir/Lucknow,+Uttar+Pradesh/28.69947,77.115773/@27.7593042,76.3895016,7z/data=!3m1!4b1!4m8!4m7!1m5!1m1!1s0x399bfe8c8d903723:0xdc4a0d1e121bf0e5!2m2!1d80.9462214!2d26.8467953!1m0?entry=ttu&g_ep=EgoyMDI1MDQzMC4xIKXMDSoASAFQAw%3D%3D",27.7593042,76.3895016
Delhi,New Delhi,Tata Power - Sagar Motors Patparganj Charging Station,Plot No 83 Patparganj Industrial Area Patparganj New Delhi,8527000290,CCS-II,12:00 AM - 11:59 PM,"https://www.google.com/maps/dir/Current+Location/28.638448,77.313066",28.638448,77.313066
Delhi,New Delhi,TATA Power - Aman Fill Point Mayur Vihar Charging station,"IndianOil E-Charge Station - Aman Fill Point, Mayur Vihar, Mayur Vihar Phase II, Vinod Nagar East",18008332233,Bharat DC-001,12:00 AM - 11:59 PM,"https://www.google.com/maps/dir/Current+Location/28.621452,77.305455",28.621452,77.305455
Delhi,New Delhi,Tata Power - City Auto Charging Station,IOCL PLOT NO. 1-A-3 DISTT CENTRE-I,8527000290,Bharat DC-001,12:00 AM - 11:59 PM,"https://www.google.com/maps/dir/Current+Location/28.716277,77.117874",28.716277,77.117874
Delhi,New Delhi,TATA - AEPTA Golf Course Delhi Cantt (Private Charger),AEPTA Golf Course Carrippa Marg Delhi Cantt Opposite Dhaula Kuan Metro Station Delhi Cantt,8527000290,CCS-IIBharat DC001 GB/T,12:00 AM - 11:59 PM,"https://www.google.com/maps/dir/Current+Location/28.592995,77.162334",28.592995,77.162334
Delhi,New Delhi,DELTA - Mangolpuri Charging station,"IOCL Road No 316, Mangolpuri Ph-1 Industrial Area",7024474113,Bharat DC-001,24 Hours,"https://www.google.com/maps/dir/Lucknow,+Uttar+Pradesh/28.688196,77.089945/@27.7593042,76.3769952,7z/data=!3m1!4b1!4m8!4m7!1m5!1m1!1s0x399bfd991f32b16b:0x93ccba8909978be7!2m2!1d80.946166!2d26.8466937!1m0?entry=ttu&g_ep=EgoyMDI1MDQzMC4xIKXMDSoASAFQAw%3D%3D",27.7593042,76.3769952
Delhi,New Delhi,TATA Power - Head Quarter Delhi - Inside Parking (Private Charger),Khyber Grid Station Head Quarter Area Near Gopinath Circle Delhi-,8527000290,CCS-IIBharat DC001 GB/T,12:00 AM - 11:59 PM,"https://www.google.com/maps/dir/Current+Location/28.593617,77.134291",28.593617,77.134291
Delhi,New Delhi,Tata Power - Ramasharam Service Charging Station,Mangol Puri Industrial Area Phase I Pocket B Industrial Area Mangolpuri S Block,18008332233,CCS-IICHAdeMO,12:00 AM - 11:59 PM,"https://www.google.com/maps/dir/Lucknow,+Uttar+Pradesh/28.692423,77.09186/@27.7593042,76.3777867,7z/data=!3m1!4b1!4m8!4m7!1m5!1m1!1s0x399bfe8c8d903723:0xdc4a0d1e121bf0e5!2m2!1d80.9462214!2d26.8467953!1m0?entry=ttu&g_ep=EgoyMDI1MDQzMC4xIKXMDSoASAFQAw%3D%3D",27.7593042,76.3777867
Delhi,New Delhi,TATA - Albert Ekka Khyber Grid (Private Charger),Albert Ekka Khyber Grid Station Head Quarter Area Near Gopinath Circle Delhi,8527000290,CCS-IIBharat DC001 GB/T,12:00 AM - 11:59 PM,"https://www.google.com/maps/dir/Current+Location/28.596473,77.132314",28.596473,77.132314
Delhi,New Delhi,Tata Power - Ssensse Hotel (Private - Charger),PLOT NO.28 POCKET 5A SECTOR 25 ROHINI,8527000290,CCS-IIAC TYPE 2,12:00 AM - 11:59 PM,"https://www.google.com/maps/dir/Current+Location/28.735847,77.093263",28.735847,77.093263
Delhi,New Delhi,Tata Power - Tauraus CSD Shopping Complex Triveni Outside Parking (Private Charger),Khyber Grid Station Head Quarter Area Near Gopinath Circle Delhi,8527000290,CCS-II,12:00 AM - 11:59 PM,"https://www.google.com/maps/dir/Current+Location/28.5954,77.133151",28.5954,77.133151
Delhi,New Delhi,TATA - 972 TPT COY(Private Charger),"Transport Company, Khyber Grid, Station Head Quarter Area, Near Gopinath Circle,",8527000290,Bharat DC-001,12:00 AM - 11:59 PM,"https://www.google.com/maps/dir/Current+Location/28.596581,77.132439",28.596581,77.132439
Delhi,New Delhi,CSC eGovernance Okhla Phase 3,Plot No. 238 Okhla Phase 3 Behind Modi Mill,8527000290,CCS-II,12:00 AM - 12:00 PM,"https://www.google.com/maps/dir/Current+Location/28.550243,77.267887",28.550243,77.267887
Delhi,New Delhi,IOCL - Raj Kumar Service,"IIT Crossing, Mehrauli Road, Hauz Khas",8527000290,Bharat DC-001,12:00 AM - 12:00 PM,"https://www.google.com/maps/dir/Current+Location/28.547216,77.193781",28.547216,77.193781
Delhi,New Delhi,"Worldmark 3, Aerocity",Worldmark Aerocity,,,12:00 AM - 12:00 PM,"https://www.google.com/maps/dir/Current+Location/28.551949,77.121692",28.551949,77.121692
Delhi,New Delhi,"Worldmark 1, Aerocity",Worldmark Aerocity,8527000290,CCS-II,12:00 AM - 11:59 PM,"https://www.google.com/maps/dir/Current+Location/28.550881,77.121356",28.550881,77.121356
Delhi,New Delhi,Jayanti Kia Charging Station,"A-2 Okhla Phase-1 Shyam Nagar, Okhla Industrial Estate,",8527000290,CCS-II,12:00 AM - 12:00 PM,"https://www.google.com/maps/dir/Current+Location/28.539177,77.269051",28.539177,77.269051
Delhi,New Delhi,Tata Power - TREO Okhla Charging Station,D-189 Ma Anandmayee Marg Okhla Phase I,8527000290,,12:00 AM - 12:00 PM,"https://www.google.com/maps/dir/Current+Location/28.525507,77.281536",28.525507,77.281536
Delhi,New Delhi,Tata Power - Sab Motors Charging Station,A-24/4 MOHAN CO-OP. INDL. ESTATE Mathura Road Tekhand Okhla Phase I Okhla Industrial Area,8527000290,CCS-II,12:00 AM - 11:59 PM,"https://www.google.com/maps/dir/Current+Location/28.5263555,77.289903",28.5263555,77.289903
Delhi,New Delhi,TATA Power - HPCL Batra Oil Charging Station,"Dakha Singhu Border, Karnal Delhi GT Road,CH Ramdev Marg",8527000290,CCS-II,12:00 AM - 11:59 PM,"https://www.google.com/maps/dir/Current+Location/28.85564,77.119453",28.85564,77.119453
Delhi,New Delhi,Tata Power - Taj Vivanta Dwarka (Private - Charger),"Vivanta Sector 21, Metro Station Complex Dwarka",8527000290,CCS-IIAC TYPE 2,12:00 AM - 11:59 PM,"https://www.google.com/maps/dir/V3QF%2BWCX,+Uattardhona,+Uttar+Pradesh+226010/28.5584184,77.062737/@27.6731419,76.4228322,7z/data=!3m1!4b1!4m8!4m7!1m5!1m1!1s0x399be2006c71e24d:0x5989857f6b7db633!2m2!1d81.0738702!2d26.889762!1m0?entry=ttu&g_ep=EgoyMDI1MDQzMC4xIKXMDSoASAFQAw%3D%3D",27.6731419,76.4228322
Delhi,New Delhi,ePrakriti Rajokri (Private Charger),Rao Farm House Rajokri Near Rajastan Petrol Pump,8527000290,Bharat DC001 GB/T,12:00 AM - 12:00 PM,"https://www.google.com/maps/dir/V3QF%2BWCX,+Uattardhona,+Uttar+Pradesh+226010/28.513762,77.11461/@27.6728216,76.4504534,7z/data=!3m1!4b1!4m8!4m7!1m5!1m1!1s0x399be2006c71e24d:0x5989857f6b7db633!2m2!1d81.0738702!2d26.889762!1m0?entry=ttu&g_ep=EgoyMDI1MDQzMC4xIKXMDSoASAFQAw%3D%3D",27.6728216,76.4504534
Delhi,New Delhi,Tata Power - Croma Rajouri Garden Charging Station,C-10 Near Gurudwara Rd Block C Rajouri Garden,8527000290,Bharat DC001 GB/T,12:00 AM - 11:59 PM,"https://www.google.com/maps/dir/Current+Location/28.6459,77.12616",28.6459,77.12616
Delhi,New Delhi,Tata Power - Maharaja Agrasen Rohini(Private - Charger),Maharaja Agrasen Technical Education Society Plot No 1 PSP Area Sector 22 Rohini,8527000290,AC TYPE 2,12:00 AM - 11:59 PM,"https://www.google.com/maps/dir/V3QF%2BWCX,+Uattardhona,+Uttar+Pradesh+226010/28.720307,77.066223/@27.7248709,76.4288486,7z/data=!3m1!4b1!4m8!4m7!1m5!1m1!1s0x399be2006c71e24d:0x5989857f6b7db633!2m2!1d81.0738702!2d26.889762!1m0?entry=ttu&g_ep=EgoyMDI1MDQzMC4xIKXMDSoASAFQAw%3D%3D",27.7248709,76.4288486
Delhi,New Delhi,Tata Power - NDMC MLUG Church Mission Charging Station,4813 Shyama Prasad Mukherjee Marg Cloth Market Katra Ghel Khari Baoli Chandni Chowk,8527000290,CCS-IICHAdeMO,10:00 AM - 07:00 PM,"https://www.google.com/maps/dir/Current+Location/28.660625,77.22333",28.660625,77.22333
Delhi,New Delhi,Tata Power - Multilevel Stack Parking Charging Station,Multilevel Stack Parking Arya Nagar Behind Sheela Cinema,8527000290,CCS-IICHAdeMO,12:00 AM - 11:59 PM,"https://www.google.com/maps/dir/Current+Location/28.645173,77.216749",28.645173,77.216749
Delhi,New Delhi,Tata Power - Taj Mahal Man Singh Rd (Private - Charger),Number One Man Singh Rd Man Singh Road Area,9223581898,AC TYPE 2,12:00 AM - 11:59 PM,"https://www.google.com/maps/dir/Current+Location/28.6053049,77.2238199",28.6053049,77.2238199
Delhi,New Delhi,TATA Power - Head Quarter Delhi - Outside Parking Near (Private Charger),Head Quarter Delhi Area (Outside Parking) Manek Shaw Road Near Gopinath Circle Delhi Cant,8527000290,CCS-IIBharat DC-001,12:00 AM - 11:59 PM,"https://www.google.com/maps/dir/Current+Location/28.588711,77.14504",28.588711,77.14504
Delhi,New Delhi,IOCL - RK Chanakyapuri Charging Station,"IOCL - RK Service Station, ChanakyaPuri , Vinay Marg, ChanakyaPuri",18008332233,CCS-IICHAdeMO,12:00 AM - 11:59 PM,"https://www.google.com/maps/dir/Current+Location/28.589836,77.195329",28.589836,77.195329
Delhi,New Delhi,"TATA Power - Indian Navy, Head Office Building (Private Charger)","Indian Navy, Varuna Naval Officers Mess, Shankar Vihar",8527000290,CCS-IIAC TYPE 2,12:00 AM - 11:59 PM,"https://www.google.com/maps/dir/Current+Location/28.573038,77.138737",28.573038,77.138737
Delhi,New Delhi,"Tata Power - WB Guest House, Chanakyapuri (Private Charger)","WB Guest House 2, Pandit Uma Shankar Dixit Marg, Chanakya Puri",8527000290,CCS-II,12:00 AM - 11:59 PM,"https://www.google.com/maps/dir/Current+Location/28.604943,77.192708",28.604943,77.192708
Delhi,New Delhi,"Tata Power - Unity One, Janakpuri Charging Station","Unity One, Janakpuri West",8527000290,CCS-IIAC TYPE 2,12:00 AM - 11:59 PM,"https://www.google.com/maps/dir/V3QF%2BWCX,+Uattardhona,+Uttar+Pradesh+226010/28.628892,77.076182/@27.6913991,76.4338938,7z/data=!3m1!4b1!4m8!4m7!1m5!1m1!1s0x399be2006c71e24d:0x5989857f6b7db633!2m2!1d81.0738702!2d26.889762!1m0?entry=ttu&g_ep=EgoyMDI1MDQzMC4xIKXMDSoASAFQAw%3D%3D",27.6913991,76.4338938
Delhi,New Delhi,"Tata Power - Narmada Residents, Vasant Kunj (Private Charger)","Flat No.1 Narmada Block 2, Sec. D-6 Vasant Kunj",8527000290,AC TYPE 2,12:00 AM - 11:59 PM,"https://www.google.com/maps/dir/Current+Location/28.525841,77.144151",28.525841,77.144151
Delhi,New Delhi,Tata Power - Delhi Diesels Bhajanpura Charging Station,"IOCL B-3 Yamuna Vihar, Wazirabad Rd, Block B, Bhajanpura",8527000290,Bharat DC-001,12:00 AM - 11:59 PM,"https://www.google.com/maps/dir/Current+Location/28.703005,77.266429",28.703005,77.266429
Delhi,New Delhi,UTPL - Pitampura Charging Station,Pitampura,9246419559,AC PLUG POINT,24 Hours,"https://www.google.com/maps/dir/V3QF%2BWCX,+Uattardhona,+Uttar+Pradesh+226010/28.693908,77.121648/@27.7248709,76.4552491,7z/data=!3m1!4b1!4m8!4m7!1m5!1m1!1s0x399be2006c71e24d:0x5989857f6b7db633!2m2!1d81.0738702!2d26.889762!1m0?entry=ttu&g_ep=EgoyMDI1MDQzMC4xIKXMDSoASAFQAw%3D%3D",27.7248709,76.4552491
Delhi,New Delhi,Tata Power - Shastri Park Charging Station,"Abdul Aziz Rd, Block 8, WEA, Karol Bagh",8527000290,CCS-IICHAdeMO,12:00 AM - 11:59 PM,"https://www.google.com/maps/dir/Current+Location/28.647065,77.192235",28.647065,77.192235
Delhi,New Delhi,Tata Power - Unity One Shahdara Charging Station,"Unity One Shahdara Maharshi Valmiki Marg, Vishwas Nagar",9246419559,CCS-IIAC TYPE 2,12:00 AM - 11:59 PM,"https://www.google.com/maps/dir/Current+Location/28.6608663,77.295529",28.6608663,77.295529
Delhi,New Delhi,"Mahindra Koncept Automobiles Pvt Ltd, Charging Station","Mahindra Service Centre, Mahindra Koncept Automobiles Pvt Ltd, A 40, Block B, Mohan Cooperative Industrial Estate, New Delhi, Delhi, 110044",9582213076,DCIEC 60309GBT,10:00 AM - 07:00 PM,"https://www.google.com/maps/dir/Current+Location/28.51439,77.296366",28.51439,77.296366
Delhi,New Delhi,Mahindra - Koncept Automobiles Pvt Ltd Charging Station,"Mahindra Koncept Automobiles Pvt Ltd, A-54, A Block, Sector 2, Noida, Uttar Pradesh, 201301",9999010018,AC PLUG POINT3PIN,10:00 AM - 07:00 PM,"https://www.google.com/maps/dir/Current+Location/28.587117,77.312835",28.587117,77.312835
Delhi,New Delhi,EESL - Woodland Showroom Charging Station,"Near Woodland Showroom, Inner Circle, Connaught Place",7906001402,Bharat DC-001GBTParking Slot,06:00 AM - 10:00 PM,"https://www.google.com/maps/dir/Current+Location/28.63429,77.219507",28.63429,77.219507
Delhi,New Delhi,REIL- Charging Station,H5/B1 Mohan Cooperative Industrial Estate Mathura Road,9990188866,Bharat AC001,24 Hours,"https://www.google.com/maps/dir/Current+Location/28.4089,77.3178",28.4089,77.3178
Delhi,New Delhi,UTCL-Patparganj Charging Station,175 Patparganj Industrial Area,9310171165,AC PLUG POINT,24 Hours,"https://www.google.com/maps/dir/Current+Location/28.6654,77.3493",28.6654,77.3493
Delhi,New Delhi,UTCL - Loknayak Charging Station,Pocket D Loknayak Puram Bakkarwara,8447746385,AC PLUG POINT,11:59 AM - 12:00 PM,"https://www.google.com/maps/dir/Current+Location/28.660706,77.005696",28.660706,77.005696
Delhi,New Delhi,Plugngo Patparganj fast charger 50KW,"Near Swati Apartments, Narwana Road IP Extn , Delhi 110092",9136637201,CHAdeMOAC TYPE 2CCS-I,10:00 AM - 07:00 PM,"https://www.google.com/maps/dir/Current+Location/28.62145,77.293556",28.62145,77.293556
Delhi,New Delhi,SSPL-Tata Power Charging Station,Saket Disst. Centre Saket,18008332233,CCS-II,24 Hours,"https://www.google.com/maps/dir/Current+Location/28.5279341,77.2156347",28.5279341,77.2156347
Delhi,New Delhi,IOCL - Gay Charging Station,"GT Karnal Road, Azadpur Industrial Area Opposite Hans Cinema",9810154076,Bharat DC-001,12:00 AM - 11:59 PM,"https://www.google.com/maps/dir/Current+Location/28.6472799,76.813065",28.6472799,76.813065
Delhi,New Delhi,KAZAM- Paul Motors Charging Station,"B-61,Satguru Ram Singh Road,Mansarover Garden",8527000290,AC PLUG POINT,24 Hours,"https://www.google.com/maps/dir/Current+Location/28.6198667,77.113982",28.6198667,77.113982
Delhi,New Delhi,Tata power- Charging Station,"G7GF+3V3, C Block Rd, Pocket A, Okhla Phase I, Okhla Industrial Estate, New Delhi, Delhi 110020",18008332233,AC PLUG POINT,12:00 AM - 12:00 PM,"https://www.google.com/maps/dir/Current+Location/28.528526,77.27831",28.528526,77.27831
Delhi,New Delhi,NTPC - Moolchand Motors Charging Station,Moolchand Motors,9443112660,Bharat AC001,10:00 AM - 07:00 PM,"https://www.google.com/maps/dir/Current+Location/28.556966,77.163741",28.556966,77.163741
Delhi,New Delhi,Powerbank - Malviya Nagar Metro Charging Station,"Block A, Shivalik Colony, Malviya Nagar",9975950100,AC TYPE 2CCS-I,10:00 AM - 07:00 PM,"https://www.google.com/maps/dir/Current+Location/28.535712,77.21091",28.535712,77.21091
Delhi,New Delhi,"GSPL - Ndse Grid, Brpl Charging Station","Ndse Grid, Brpl South Extension",18008332233,Bharat DC-001,24 Hours,"https://www.google.com/maps/dir/Current+Location/28.568224,77.220178",28.568224,77.220178
Delhi,New Delhi,Tata Power - Chanakyapuri Charging Station,"IOCL - COCO Niti Marg, Chanakyapuri , Niti Marg, ChanakyaPuri",18008332233,Bharat AC001,12:00 AM - 11:59 PM,"https://www.google.com/maps/dir/Current+Location/28.589878,77.1955",28.589878,77.1955
Delhi,New Delhi,EESL - Khanna Market Aliganj Charging Station,"NDMC Parking, Opposite Dhoori Pharmacy, Khanna Market, Aliganj, Lodhi Colony",8826682535,DCGBT,10:00 AM - 07:00 PM,"https://www.google.com/maps/dir/Current+Location/28.581276,77.220043",28.581276,77.220043
Delhi,New Delhi,KAZAM- Bses Charging Station,Bses Head Office Bhawan Nehru Place,18008332233,AC PLUG POINT,24 Hours,"https://www.google.com/maps/dir/Current+Location/28.592914,77.220242",28.592914,77.220242
Delhi,New Delhi,EESL - Malcha Market Charging Station,"NDMC Parking, Dharma Marg, Block Y, Diplomatic Enclave, Malcha Market",8826682535,DCGBTParking Slot,10:00 AM - 07:00 PM,"https://www.google.com/maps/dir/Current+Location/28.602229,77.186064",28.602229,77.186064
Delhi,New Delhi,UTCL - Agroha Kunj Charging Station,"Plot No 1/1, Agroha Kunj, Sector 13, Rohini",8447746385,AC PLUG POINT,11:59 AM - 12:00 PM,"https://www.google.com/maps/dir/V3QF%2BWCX,+Uattardhona,+Uttar+Pradesh+226010/28.717566,77.129272/@27.7248709,76.4599627,7z/data=!3m1!4b1!4m8!4m7!1m5!1m1!1s0x399be2006c71e24d:0x5989857f6b7db633!2m2!1d81.0738702!2d26.889762!1m0?entry=ttu&g_ep=EgoyMDI1MDQzMC4xIKXMDSoASAFQAw%3D%3D",27.7248709,76.4599627
Delhi,New Delhi,EESL - Talkatora Stadium Charging Station,"Gate No-2&3, Talkatora Stadium, President Estate",7906001402,DCGBT,10:00 AM - 07:00 PM,"https://www.google.com/maps/dir/V3QF%2BWCX,+Uattardhona,+Uttar+Pradesh+226010/28.626216,77.195399/@27.6899177,76.4934636,7z/data=!3m1!4b1!4m8!4m7!1m5!1m1!1s0x399be2006c71e24d:0x5989857f6b7db633!2m2!1d81.0738702!2d26.889762!1m0?entry=ttu&g_ep=EgoyMDI1MDQzMC4xIKXMDSoASAFQAw%3D%3D",27.6899177,76.4934636
Delhi,New Delhi,EESL - Talkatora Garden Charging Station,"Talkatora Garden, Next To Dr Shyama Prasad Mukherji Swimming Pool Complex, Mother Teresa Cross, Presidents Estate",8330083300,DCAC TYPE 2AC TYPE 1Parking Slot,10:00 AM - 07:00 PM,"https://www.google.com/maps/dir/Current+Location/28.6143525,77.197236",28.6143525,77.197236
Delhi,New Delhi,UTPL - Suraj Kund Charging Station,Suraj Kund Chamwood Village,8045688448,Socket3PIN,24 Hours,"https://www.google.com/maps/dir/Current+Location/28.493396,77.288633",28.493396,77.288633
Delhi,New Delhi,UTPL - vikas Charging Station,"1 C, Vikas Kunj Extension, Mohan Garden, Uttam Nagar",8045688448,AC PLUG POINT,24 Hours,"https://www.google.com/maps/dir/Current+Location/28.645159,77.033645",28.645159,77.033645
Delhi,New Delhi,HP- Sharging Station,"HP PETROL PUMP - HIGHWAY SERVICE STATION, NH-8, Mahipalpur",8923707762,Bharat AC001,11:59 AM - 12:00 PM,"https://www.google.com/maps/dir/V3QF%2BWCX,+Uattardhona,+Uttar+Pradesh+226010/28.540697,77.116863/@27.6739322,76.4419727,7z/data=!3m1!4b1!4m8!4m7!1m5!1m1!1s0x399be2006c71e24d:0x5989857f6b7db633!2m2!1d81.0738702!2d26.889762!1m0?entry=ttu&g_ep=EgoyMDI1MDQzMC4xIKXMDSoASAFQAw%3D%3D",27.6739322,76.4419727
Delhi,New Delhi,UTPL-Shivaji Marg Charging Station,Shivaji Enclave Shivaji Marg,7840877356,AC PLUG POINT,24 Hours,"https://www.google.com/maps/dir/V3QF%2BWCX,+Uattardhona,+Uttar+Pradesh+226010/28.631295,77.081362/@27.6950998,76.434757,7z/data=!3m1!4b1!4m8!4m7!1m5!1m1!1s0x399be2006c71e24d:0x5989857f6b7db633!2m2!1d81.0738702!2d26.889762!1m0?entry=ttu&g_ep=EgoyMDI1MDQzMC4xIKXMDSoASAFQAw%3D%3D",27.6950998,76.434757
Delhi,New Delhi,IOCL- Delhi Lajpat Nagar Charging Station,New Auto Class B105 Lajpat Nagar Part I New Delhi,18008332233,AC TYPE 2,11:59 AM - 12:00 PM,"https://www.google.com/maps/dir/Current+Location/28.574742,77.236938",28.574742,77.236938
Delhi,New Delhi,EESL - R Block Market Charging Station,"SDMC Parking, R Block Market, Greater Kailash 1",9319300301,DCIEC 60309GBTAC TYPE 1Parking Slot,10:00 AM - 07:00 PM,"https://www.google.com/maps/dir/Current+Location/28.549427,77.243591",28.549427,77.243591
Delhi,New Delhi,EESL - Dilli Haat Charging Station,"NDMC Parking, Dilli Haat, West Kidwai Nagar",7906001402,CCS-IICHAdeMOAC TYPE 2AC TYPE 1,12:00 AM - 11:59 PM,"https://www.google.com/maps/dir/V3QF%2BWCX,+Uattardhona,+Uttar+Pradesh+226010/28.95592,77.203138/@27.8340543,76.4973875,7z/data=!3m1!4b1!4m8!4m7!1m5!1m1!1s0x399be2006c71e24d:0x5989857f6b7db633!2m2!1d81.0738702!2d26.889762!1m0?entry=ttu&g_ep=EgoyMDI1MDQzMC4xIKXMDSoASAFQAw%3D%3D",27.8340543,76.4973875
Delhi,New Delhi,Tata Power - Naniwala Bagh Commercial,"Naniwala Bagh Commercial Complex, Azadpur, NDMC Parking",,CCS-IIAC TYPE 2,12:00 AM - 11:59 PM,"https://www.google.com/maps/dir/V3QF%2BWCX,+Uattardhona,+Uttar+Pradesh+226010/28.709831,77.17765/@27.7112362,76.4837429,7z/data=!3m1!4b1!4m8!4m7!1m5!1m1!1s0x399be2006c71e24d:0x5989857f6b7db633!2m2!1d81.0738702!2d26.889762!1m0?entry=ttu&g_ep=EgoyMDI1MDQzMC4xIKXMDSoASAFQAw%3D%3D",27.7112362,76.4837429
Delhi,New Delhi,EESL - Near ICICI Bank Charging Station,"Near ICICI Bank, Metro Gate No 7 & 8, Inner Circle, Connaught Place",7906001402,Parking Slot,10:00 AM - 07:00 PM,"https://www.google.com/maps/dir/Current+Location/28.640528,77.185867",28.640528,77.185867
Delhi,New Delhi,Tata Power - Intimate Charging Station,"Intimate Service Station,Panchshila Park Lock No 334",,CCS-IIBharat DC-001,10:00 AM - 07:00 PM,"https://www.google.com/maps/dir/Current+Location/28.632973,77.222937",28.632973,77.222937
Delhi,New Delhi,Nand Vihar (Private Charger),"Nand Vihar, Sector 16A, Dwarka",8826871735,Bharat AC001,11:59 AM - 12:00 PM,"https://www.google.com/maps/dir/V3QF%2BWCX,+Uattardhona,+Uttar+Pradesh+226010/28.61546,77.021012/@27.6890637,76.4061067,7z/data=!3m1!4b1!4m8!4m7!1m5!1m1!1s0x399be2006c71e24d:0x5989857f6b7db633!2m2!1d81.0738702!2d26.889762!1m0?entry=ttu&g_ep=EgoyMDI1MDQzMC4xIKXMDSoASAFQAw%3D%3D",27.6890637,76.4061067
Delhi,New Delhi,Kazam - Palam Ext Charging Stations,"E-1/17A Palam Ext Near Vardhman Mall, Sector 7 Dwarka",7834887076,AC TYPE 2,12:00 AM - 11:59 PM,"https://www.google.com/maps/dir/V3QF%2BWCX,+Uattardhona,+Uttar+Pradesh+226010/28.591934,77.05855/@27.6784282,76.4250518,7z/data=!3m1!4b1!4m8!4m7!1m5!1m1!1s0x399be2006c71e24d:0x5989857f6b7db633!2m2!1d81.0738702!2d26.889762!1m0?entry=ttu&g_ep=EgoyMDI1MDQzMC4xIKXMDSoASAFQAw%3D%3D",27.6784282,76.4250518
Delhi,New Delhi,UTPL- Dwarka Charging Stations,Plot No 05 Sector 18 A Dwarka,8447746385,AC PLUG POINT,24 Hours,"https://www.google.com/maps/dir/V3QF%2BWCX,+Uattardhona,+Uttar+Pradesh+226010/28.590747,77.034075/@27.6820706,76.412219,7z/data=!3m1!4b1!4m8!4m7!1m5!1m1!1s0x399be2006c71e24d:0x5989857f6b7db633!2m2!1d81.0738702!2d26.889762!1m0?entry=ttu&g_ep=EgoyMDI1MDQzMC4xIKXMDSoASAFQAw%3D%3D",27.6820706,76.412219
Delhi,New Delhi,Tata Power-Sanjeev Filling Station,"Civil Lines, Opp. Timarpur Police Station",18008332233,Bharat DC-001,10:00 AM - 07:00 PM,"https://www.google.com/maps/dir/Current+Location/28.587135,77.241353",28.587135,77.241353
Delhi,New Delhi,Tata Power - TML True North Mayapuri Charging Station,"A1/1 Mayapuri, Industrial Area, Phase 1",18008332233,CCS-IICHAdeMO,11:59 AM - 12:00 PM,"https://www.google.com/maps/dir/Current+Location/28.633301,77.126961",28.633301,77.126961
Delhi,New Delhi,UTCL- Ruchika Service Mayur Vihar Charging Station,KONDLI GHARAOLI MAYUR VIHAR PH-III,18008332233,AC PLUG POINT,11:59 AM - 12:00 PM,"https://www.google.com/maps/dir/Current+Location/28.603499,77.335422",28.603499,77.335422
Delhi,New Delhi,Tata Power - Pacific Mall Tagore Garden Delhi Charging Station,"Pacific Mall, Tagore Garden , Najafgarh Rd, Tagore Garden, Tilak Nagar",18008332233,CCS-IICHAdeMOAC TYPE 2Bharat DC-001,12:00 AM - 11:59 PM,"https://www.google.com/maps/dir/Current+Location/28.642219,77.105891",28.642219,77.105891
Delhi,New Delhi,Tata Power - Netaji Subhash Place Charging Station,"Pacific Mall, Netaji Subash Palace , Pitam Pura",8527000290,CCS-IICHAdeMOAC TYPE 2Bharat DC-001,12:00 AM - 11:59 PM,"https://www.google.com/maps/dir/Uattardhona,+Uttar+Pradesh/28.691279,77.152396/@27.7255127,76.4533768,7z/data=!3m1!4b1!4m8!4m7!1m5!1m1!1s0x399be207e556dd5d:0x379527c1feb0fcbc!2m2!1d81.0648758!2d26.8912141!1m0?entry=ttu&g_ep=EgoyMDI1MDQzMC4xIKXMDSoASAFQAw%3D%3D",27.7255127,76.4533768
Delhi,New Delhi,Tata Power - Pacific Mall Jasola Charging Station,"Pacific Mall Jasola, Pacific Mall Jasola, MLCP Of Pacific Mall, Jasola Apollo Metro Station",18008332233,CCS-IIAC TYPE 2Bharat DC-001,12:00 AM - 11:59 PM,"https://www.google.com/maps/dir/Current+Location/28.538217,77.283323",28.538217,77.283323
Delhi,New Delhi,TCIL - Lajpat Ring Charging Station,"Nagar- Part 3, Lajpat Ring Road, A Block, Near Bus Stop",9716129658,AC TYPE 2,24 Hours,"https://www.google.com/maps/dir/Current+Location/28.570513,77.236889",28.570513,77.236889
Delhi,New Delhi,PTC IGI Airport Charging Station,"Public Transport Centre, Car Parking, IGI Airport",9711181070,DCGBTAC TYPE 2,10:00 AM - 07:00 PM,"https://www.google.com/maps/dir/Current+Location/28.548646,77.104162",28.548646,77.104162
Delhi,New Delhi,CESL - SDMC Parking Charging Station,"SDMC Parking, Nehru Place Plot 81 85",7906001402,CCS-IICHAdeMOAC TYPE 2Bharat DC-001,12:00 AM - 11:59 PM,"https://www.google.com/maps/dir/Current+Location/28.54828,77.2512365",28.54828,77.2512365
Delhi,New Delhi,IOCL - Nizamuddin Charging Station,Near Mother Dairy,8045688448,Bharat AC001,10:00 AM - 07:00 PM,"https://www.google.com/maps/dir/Current+Location/28.588506,77.257024",28.588506,77.257024
Delhi,New Delhi,EESL - Sri Aurobindo Marg Charging Station,"Sri Aurobindo Marg, Office Of Block A, Green Park Extension, Green Park",8330083300,DCIEC 60309GBTAC TYPE 1,10:00 AM - 07:00 PM,"https://www.google.com/maps/dir/Current+Location/28.552074,77.203279",28.552074,77.203279
Delhi,New Delhi,EESL - Sarojini Nagar Market Charging Station,"Sarojini Nagar Market, Sarojini Nagar",18008332233,Bharat DC-001,10:00 AM - 07:00 PM,"https://www.google.com/maps/dir/Current+Location/28.577259,77.19692",28.577259,77.19692
Delhi,New Delhi,CESL - PSOI Club Charging Station,"PSOI Club, Chanakyapuri,",,Bharat DC-001,12:00 AM - 11:59 PM,"https://www.google.com/maps/dir/Current+Location/28.586638,77.193352",28.586638,77.193352
Delhi,New Delhi,EESL - Talkatora Garden Charging Station,"Talkatora Garden, Next To Dr Shyama Prasad Mukherji Swimming Pool Complex, Mother Teresa Cross, Presidents Estate",8330083300,Bharat DC-001Bharat AC001AC TYPE 2Parking Sl,10:00 AM - 07:00 PM,"https://www.google.com/maps/dir/Current+Location/28.622362,77.193671",28.622362,77.193671
Delhi,New Delhi,EESL - Bharat Sanchar Bhawan Charging Station,"Outside Bharat Sanchar Bhawan, Ashoke Road, Janpath",7906001402,Bharat AC001,10:00 AM - 07:00 PM,"https://www.google.com/maps/dir/Current+Location/28.621724,77.219286",28.621724,77.219286
Delhi,New Delhi,EESL - Jain Bhawan Charging Station,"Shiva Ji Stadium, 1st Basement Parking, Shaheed Bhagat Singh Marg, Connaught Place, New Delhi",7906001402,Bharat DC-001DCIEC 60309GBTAC TYPE 1,Closed Now,"https://www.google.com/maps/dir/Current+Location/28.633614,77.207691",28.633614,77.207691
Delhi,New Delhi,EESL - Barakhamba Charging Station,"NDMC Office, 66KV Sub Division Fire Brigade Lane, Barakhambha Road, New Delhi,",18008332233,Bharat DC-001,Closed Now,"https://www.google.com/maps/dir/Current+Location/28.630256,77.225668",28.630256,77.225668
Delhi,New Delhi,CESL - Gopal Das Building Charging Station,"Gopal Das Building, Barakhamba Road, Connaught Lane, Barakhamba",7906001402,Bharat DC-001,12:00 AM - 11:59 PM,"https://www.google.com/maps/dir/Current+Location/28.631121,77.221654",28.631121,77.221654
Delhi,New Delhi,EESL - HP Petrol Pump Charging Station,"Opposite HP Petrol Pump, Block E, Middle Circle, Connaught Place",18008332233,GBTDC,10:00 AM - 07:00 PM,"https://www.google.com/maps/dir/Current+Location/28.631848,77.217614",28.631848,77.217614
Delhi,New Delhi,EESL - Iqbal Bros Charging Station,"Outside Iqbal Brothers, G1, Block G, Connaught Place, New Delhi,",8826682535,Bharat DC-001Parking Slot,Closed Now,"https://www.google.com/maps/dir/Current+Location/28.633841,77.217664",28.633841,77.217664
Delhi,New Delhi,"EESL- M Block, Connaught Place Charging Station","Opposite HDFC Bank, M Block, Connaught Place",18001803580,AC TYPE 2,10:00 AM - 07:00 PM,"https://www.google.com/maps/dir/Current+Location/28.632973,77.222937",28.632973,77.222937
Delhi,New Delhi,EESL - RR6 Charging Station,"NDMC Parking, Opp South Indian Bank, Block – E , RR6, Middle Circle, Connaught Place",18008332233,Bharat AC001,10:00 AM - 07:00 PM,"https://www.google.com/maps/dir/Current+Location/28.63363,77.221949",28.63363,77.221949
Delhi,New Delhi,EESL - Block-M Charging Station,"Outside Westened Vedi Tailors, Block-M, Middle Circle, Connaught Place",8826682535,Bharat DC-001GBTParking Slot,10:00 AM - 07:00 PM,"https://www.google.com/maps/dir/Current+Location/28.633867,77.22191",28.633867,77.22191
Delhi,New Delhi,EESL - Near Croma Charging Station,"Near Croma, Block C, Opposite BPCL Petrol Pump, Connaught Place",8826682535,GBTDC,10:00 AM - 07:00 PM,"https://www.google.com/maps/dir/Current+Location/28.634388,77.221038",28.634388,77.221038
Delhi,New Delhi,EESL - PVR Plaza Charging Station,"Next To Pvr Plaza, H Block Rr4, Connaught Place",7906001402,Bharat DC-001GBTParking Slot,10:00 AM - 07:00 PM,"https://www.google.com/maps/dir/Current+Location/28.63491,77.219522",28.63491,77.219522
Delhi,New Delhi,UTPL - MVID MCD HOSPITAL Charging Station,MVID MCD Hospital Parking Tagore Park Extension Mukherjee Nagar,8527000290,AC PLUG POINT,24 Hours,"https://www.google.com/maps/dir/Current+Location/28.703699,77.204473",28.703699,77.204473
Delhi,New Delhi,IOCL - Satya Charging Station,"Ground Floor, Block L Hari Nagar",9810024847,Bharat DC-001,12:00 AM - 11:59 PM,"https://www.google.com/maps/dir/Current+Location/28.625974,77.101589",28.625974,77.101589
Delhi,New Delhi,SSPL- Ganga Petro Dwarka Charging Station,IOCL Sector - 10 Dwarka,8527000290,CCS-II,24 Hours,"https://www.google.com/maps/dir/Uattardhona,+Uttar+Pradesh/28.5792424,77.055407/@27.6533343,76.4190287,7z/data=!3m1!4b1!4m8!4m7!1m5!1m1!1s0x399be207e556dd5d:0x379527c1feb0fcbc!2m2!1d81.0648758!2d26.8912141!1m0?entry=ttu&g_ep=EgoyMDI1MDQzMC4xIKXMDSoASAFQAw%3D%3D",27.6533343,76.4190287
Delhi,New Delhi,UTCL- Badus Petro Barthal Charging Station,"Barthal Near Airport , Badus Petro (Indian Oil Retail Outlet),Urban Extension Road II (Dwarka Link Road),F-28 PUSHPANJALI , Near Hotel Clark Greens, Village Barthal",18008332233,AC PLUG POINT,11:59 AM - 12:00 PM,"https://www.google.com/maps/dir/Uattardhona,+Uttar+Pradesh/28.54333,77.066524/@27.653014,76.4245617,7z/data=!3m1!4b1!4m8!4m7!1m5!1m1!1s0x399be207e556dd5d:0x379527c1feb0fcbc!2m2!1d81.0648758!2d26.8912141!1m0?entry=ttu&g_ep=EgoyMDI1MDQzMC4xIKXMDSoASAFQAw%3D%3D",27.653014,76.4245617
Delhi,New Delhi,Tata Power - Karampura Commercial Complex Charging Station,Veer Kunwar Singh Marg Karampura Market Karam Pura,8527000290,CCS-IICHAdeMO,11:59 AM - 12:00 PM,"https://www.google.com/maps/dir/Uattardhona,+Uttar+Pradesh/28.661723,77.147453/@27.7136248,76.4533759,7z/data=!3m1!4b1!4m8!4m7!1m5!1m1!1s0x399be207e556dd5d:0x379527c1feb0fcbc!2m2!1d81.0648758!2d26.8912141!1m0?entry=ttu&g_ep=EgoyMDI1MDQzMC4xIKXMDSoASAFQAw%3D%3D",27.7136248,76.4533759
Delhi,New Delhi,Tata Power - Jungpura Nizamuddin West New Delhi Charging Station,"IOCL COCO Lala Lajpat Rai Marg, Jangpura, Nizamuddin West, New Delhi",18008332233,CCS-IICHAdeMO,12:00 AM - 11:59 PM,"https://www.google.com/maps/dir/Current+Location/28.580273,77.238549",28.580273,77.238549
Delhi,New Delhi,Taj The Connaught- IHCL Charging Station,"37,Shaheed Bhagat Singh Marg, Connaught Place",9223581898,Bharat AC001,11:59 AM - 12:00 PM,"https://www.google.com/maps/dir/Current+Location/28.633154,77.213251",28.633154,77.213251
Delhi,New Delhi,"MG - Vasant Square Mall,Charging Station","B2 Parking, Vasant Square Mall, Vashant Vihar, New Delhi",7042113345,AC PLUG POINTAC TYPE 2,10:00 AM - 07:00 PM,"https://www.google.com/maps/dir/Current+Location/28.525231,77.156944",28.525231,77.156944
Delhi,New Delhi,Kazam-Showroom Safdarjung Enclave Charging Station,"MG Showroom, B1/4, Safdarjung Enclave,",9953889889,AC PLUG POINT,12:00 AM - 11:59 PM,"https://www.google.com/maps/dir/Current+Location/28.565915,77.18949",28.565915,77.18949
Delhi,New Delhi,CESL - Safderjung Enclave Charging Station,"SDMC Parking, B6, Safderjung Enclave",18001803580,Bharat DC-001,12:00 AM - 11:59 PM,"https://www.google.com/maps/dir/Current+Location/28.550453,77.233698",28.550453,77.233698
Delhi,New Delhi,CESL - SDMC Parking Charging Station,"SDMC Parking, R Block Market, Greater Kailash 1",9319300301,Bharat AC001,12:00 AM - 11:59 PM,"https://www.google.com/maps/dir/Current+Location/28.550331,77.233634",28.550331,77.233634
Delhi,New Delhi,Mahindra - Grid Substation Building Charging Station,"33KV Grid Substation Building, Pusa Grid, Todapur, New Delhi, Delhi, 110012",18002096006,AC PLUG POINTIEC 60309,Closed Now,"https://www.google.com/maps/dir/Uattardhona,+Uttar+Pradesh/28.691499,77.130338/@27.7215867,76.4533765,7z/data=!3m1!4b1!4m8!4m7!1m5!1m1!1s0x399be207e556dd5d:0x379527c1feb0fcbc!2m2!1d81.0648758!2d26.8912141!1m0?entry=ttu&g_ep=EgoyMDI1MDQzMC4xIKXMDSoASAFQAw%3D%3D",27.7215867,76.4533765
Delhi,New Delhi,Mahindra - IP Estate Grid Charging Station,"Near PWD Y-Shaped Building, ITO Vikas Minar Building, New Delhi, Delhi, 110013",18002096006,,Closed Now,"https://www.google.com/maps/dir/Current+Location/28.626154,77.245275",28.626154,77.245275
Delhi,New Delhi,Mahindar - Loni Road Grid Charging Station,"Near CNG Pump, Main Loni Road, New Delhi, Delhi, 110094",18002096006,,Closed Now,"https://www.google.com/maps/dir/Current+Location/28.705772,77.291743",28.705772,77.291743
Delhi,New Delhi,Mahindra - Ghonda Grid Charging Stations,"Main Loni Road, Near Delhi Transport Authority, New Delhi, Delhi, 110053",18002096006,,Closed Now,"https://www.google.com/maps/dir/Current+Location/28.703764,77.292531",28.703764,77.292531
Delhi,New Delhi,Mahindra - Vasant Kunj Charging Station,"Vasant Kunj, Sector C Pocket 9, New Delhi, Delhi",18002096006,,Closed Now,"https://www.google.com/maps/dir/Current+Location/28.539842,77.144261",28.539842,77.144261
Delhi,New Delhi,"JIO BP - Reliance Mall, Najafgarh Charging Station","Reliance Mall, Najafgarh, Sector 13, Dwarka New Delhi",18008919023,CCS-IIBharat AC001AC TYPE 2,11:59 AM - 12:00 PM,"https://www.google.com/maps/dir/Uattardhona,+Uttar+Pradesh/28.59666,77.036615/@27.6784737,76.4096346,7z/data=!3m1!4b1!4m8!4m7!1m5!1m1!1s0x399be207e556dd5d:0x379527c1feb0fcbc!2m2!1d81.0648758!2d26.8912141!1m0?entry=ttu&g_ep=EgoyMDI1MDQzMC4xIKXMDSoASAFQAw%3D%3D",27.6784737,76.4096346
Delhi,New Delhi,Mahindra - Dallupura Grid Charging Station,"Dallupura Grid, Vasundhara Enclave, Near Prayag Apartments, New Delhi",18002096006,,Closed Now,"https://www.google.com/maps/dir/Current+Location/28.604594,77.318364",28.604594,77.318364
Delhi,New Delhi,Mahindra - Vasundhara Charging Stations,"Vasundhara Enclave, Near Prayag Apartments, New Delhi, Delhi",18002096006,Bharat DC-001,Closed Now,"https://www.google.com/maps/dir/Current+Location/28.600332,77.311668",28.600332,77.311668
Delhi,New Delhi,Mahindra - Mayur Vihar Phase-3 Division office Charging Station,"Mayur Vihar Phase-3 Division Office, Vasundhara Enclave, Near Somerville School, New Delhi",18002096006,,Closed Now,"https://www.google.com/maps/dir/Current+Location/28.603594,77.318761",28.603594,77.318761
Delhi,New Delhi,"Mahindra - Block C, Opposite C 23 Charging Station","Block C, Opposite C 23, New Delhi, Delhi",18002096006,,Closed Now,"https://www.google.com/maps/dir/Current+Location/28.634309,77.220124",28.634309,77.220124
Delhi,New Delhi,Mahindra - Jhandewalan Extension Charging Station,"1E/11, Jhandewalan Extension, Near Metro Station, New Delhi, Delhi, 110055",18002096006,,Closed Now,"https://www.google.com/maps/dir/Current+Location/28.644569,77.199961",28.644569,77.199961
Delhi,New Delhi,Mahindra - NDSE Part-2 Charging Station,"NDSE Part-2, South Extn, South Extension Market, New Delhi",18002096006,,Closed Now,"https://www.google.com/maps/dir/Current+Location/28.568872,77.221039",28.568872,77.221039
Delhi,New Delhi,Mahindra - Lodhi Road Charging Station,"Lodhi Road, Block 7, Near Jawahar Lal Nehru Stadium, Opposite Sai International Centre, Lodhi Colony, New Delhi",18002096006,AC PLUG POINT3PIN,Closed Now,"https://www.google.com/maps/dir/Current+Location/28.590967,77.227824",28.590967,77.227824
Delhi,New Delhi,"UTPL-Mahindra - A-24, Lajpat Nagar Charging Station","Pvt Ltd, A-24, Lajpat Nagar- 4, Vikram Vihar, New Delhi, Delhi",18002096006,AC PLUG POINT,24 Hours,"https://www.google.com/maps/dir/Current+Location/28.564647,77.239419",28.564647,77.239419
Delhi,New Delhi,Mahindra - Kichripur grid Charging Station,"Mayur Vihar Phase-2, Near Lal Bahadur Shastri Hospital, New Delhi",18002096006,,Closed Now,"https://www.google.com/maps/dir/Current+Location/28.618538,77.311861",28.618538,77.311861
Delhi,New Delhi,Mahindra - Dwarka Sector 9 Charging Station,"Dwarka, G 6 Sector 9, Papan Kalan, Dwarka Near District Court 1, New Delhi",9953326168,Bharat DC-001,12:00 AM - 11:59 PM,"https://www.google.com/maps/dir/Current+Location/28.580931,77.059427/@27.6731419,76.42104,7z/data=!3m1!4b1?entry=ttu&g_ep=EgoyMDI1MDQzMC4xIKXMDSoASAFQAw%3D%3D",27.6731419,76.42104
Delhi,New Delhi,Mahindra - Chilla Grid Charging Stations,"Mayur Vihar Phase-3, Near Riverside Club, New Delhi, Delhi",18002096006,AC PLUG POINT3PIN,Closed Now,"https://www.google.com/maps/dir/Current+Location/28.59502,77.299741",28.59502,77.299741
Delhi,New Delhi,CESL - SDA market Charging Station,"SDMC Parking, SDA Market, Hauz Khas",18001803580,Bharat DC-001,12:00 AM - 11:59 PM,"https://www.google.com/maps/dir/Current+Location/28.54641,77.196353",28.54641,77.196353
Delhi,New Delhi,AARGO - Lajpat Nagar Charging Station,"K-4, Feroze Gandhi Rd, Block K, Lajpat Nagar II, Lajpat Nagar",18001803580,AC TYPE 2Parking Slot,24 Hours,"https://www.google.com/maps/dir/Current+Location/28.566742,77.245479",28.566742,77.245479
Delhi,New Delhi,EESL - PVR Charging Stations,"Priya Vasant Vihar, SDMC Parking New Delhi, Near Gold'S Gym",,Bharat DC-001,06:00 AM - 10:00 PM,"https://www.google.com/maps/dir/Current+Location/28.558039,77.163838",28.558039,77.163838
Delhi,New Delhi,VOLTTIC - DCS - 08 Charging Station,"Iffco Chowk, Delhi",9711829983,GB/T,Closed Now,"https://www.google.com/maps/dir/Uattardhona,+Uttar+Pradesh/28.477914,77.069834/@27.6665079,76.4080221,7z/data=!3m1!4b1!4m8!4m7!1m5!1m1!1s0x399be207e556dd5d:0x379527c1feb0fcbc!2m2!1d81.0648758!2d26.8912141!1m0?entry=ttu&g_ep=EgoyMDI1MDQzMC4xIKXMDSoASAFQAw%3D%3D",27.6665079,76.4080221
Delhi,New Delhi,Sun Mobility - Kair Village Charging Station,Kair Village,9871048895,Bharat AC001AC TYPE 2,11:59 AM - 12:00 PM,"https://www.google.com/maps/dir/Uattardhona,+Uttar+Pradesh/28.613029,76.922518/@27.6862043,76.3521381,7z/data=!3m1!4b1!4m8!4m7!1m5!1m1!1s0x399be207e556dd5d:0x379527c1feb0fcbc!2m2!1d81.0648758!2d26.8912141!1m0?entry=ttu&g_ep=EgoyMDI1MDQzMC4xIKXMDSoASAFQAw%3D%3D",27.6862043,76.3521381
Delhi,New Delhi,Blue Smart - Kapashera Estate Charging Station,Vasant Kunj,9811067012,Bharat DC-001,12:00 AM - 11:59 PM,"https://www.google.com/maps/dir/Current+Location/28.522563,77.089012",28.522563,77.089012
Delhi,New Delhi,Rama Charging Station ( Private Chager ),"Block B Rama, Road, Moti Nagar",,CCS-IICHAdeMO,12:00 AM - 11:59 PM,"https://www.google.com/maps/dir/Uattardhona,+Uttar+Pradesh/28.659682,77.15177/@27.7100278,76.4533756,7z/data=!3m1!4b1!4m8!4m7!1m5!1m1!1s0x399be207e556dd5d:0x379527c1feb0fcbc!2m2!1d81.0648758!2d26.8912141!1m0?entry=ttu&g_ep=EgoyMDI1MDQzMC4xIKXMDSoASAFQAw%3D%3D",27.7100278,76.4533756
Delhi,New Delhi,SETV - Uttam Nagar East Metro Station Charging Station,"Rd Number 237, Jj Colony, Uttam Nagar",9999875122,Bharat AC001,12:00 AM - 11:59 PM,"https://www.google.com/maps/dir/Uattardhona,+Uttar+Pradesh/28.625056,77.065171/@27.6883852,76.423266,7z/data=!3m1!4b1!4m8!4m7!1m5!1m1!1s0x399be207e556dd5d:0x379527c1feb0fcbc!2m2!1d81.0648758!2d26.8912141!1m0?entry=ttu&g_ep=EgoyMDI1MDQzMC4xIKXMDSoASAFQAw%3D%3D",27.6883852,76.423266
Delhi,New Delhi,Bindapur- Terminal Charging Stations,Bindapur Terminal Binda Pur Road,8826871735,Bharat AC001AC TYPE 2,11:59 AM - 12:00 PM,"https://www.google.com/maps/dir/Uattardhona,+Uttar+Pradesh/28.614619,77.056787/@27.6879683,76.4197179,7z/data=!3m1!4b1!4m8!4m7!1m5!1m1!1s0x399be207e556dd5d:0x379527c1feb0fcbc!2m2!1d81.0648758!2d26.8912141!1m0?entry=ttu&g_ep=EgoyMDI1MDQzMC4xIKXMDSoASAFQAw%3D%3D",27.6879683,76.4197179
Delhi,New Delhi,Shaheed Mangal - Charging Stations,"Shaheed Mangal Pandey Marg, Hari Nagar",8826871735,Bharat AC001,11:59 AM - 12:00 PM,"https://www.google.com/maps/dir/Uattardhona,+Uttar+Pradesh/28.624742,77.110952/@27.6883997,76.4449952,7z/data=!3m1!4b1!4m8!4m7!1m5!1m1!1s0x399be207e556dd5d:0x379527c1feb0fcbc!2m2!1d81.0648758!2d26.8912141!1m0?entry=ttu&g_ep=EgoyMDI1MDQzMC4xIKXMDSoASAFQAw%3D%3D",27.6883997,76.4449952
Delhi,New Delhi,SETV - Param Puri Charging Stations,"Uttam Nagar East Metro Station, Param Puri",8826871735,Bharat AC001,24 Hours,"https://www.google.com/maps/dir/Uattardhona,+Uttar+Pradesh/28.622027,77.056717/@27.6879683,76.4184087,7z/data=!3m1!4b1!4m8!4m7!1m5!1m1!1s0x399be207e556dd5d:0x379527c1feb0fcbc!2m2!1d81.0648758!2d26.8912141!1m0?entry=ttu&g_ep=EgoyMDI1MDQzMC4xIKXMDSoASAFQAw%3D%3D",27.6879683,76.4184087
Delhi,New Delhi,REVOS - shead Charging Station,Shead No 10 Dsiidc Cwc DDA Kalkaji,9891902241,Bharat AC001,12:00 AM - 11:59 PM,"https://www.google.com/maps/dir/Current+Location/28.530401,77.258674",28.530401,77.258674
Delhi,New Delhi,EEE- Mukteshwar Dham Charging station,"Andheriya Bagh,Mehrauli",9906090044,AC PLUG POINT,24 Hours,"https://www.google.com/maps/dir/Current+Location/28.510389,77.171527",28.510389,77.171527
Delhi,New Delhi,E-Fill Electric - Panchsheel Vihar Charging Stations,"B 102, Panchsheel Vihar, Near Apj School, Sheikh Sarai Phase 1, Sheikh Sarai",7834887076,AC TYPE 2,11:59 AM - 12:00 PM,"https://www.google.com/maps/dir/Current+Location/28.535938,77.223114",28.535938,77.223114
Delhi,New Delhi,Maya Puri Charging Stations,"Police Station, B-80, Maya Puri Industrial Area Phase-1, Behind Maya Puri",7834887076,AC TYPE 2,11:59 AM - 12:00 PM,"https://www.google.com/maps/dir/Current+Location/28.627041,77.121628",28.627041,77.121628
Delhi,New Delhi,E-Fill Electric - MRL Charging Stations,"Near MRL School Prakash Vihar, Karawal Nagar",7834887076,AC TYPE 2,11:59 AM - 12:00 PM,"https://www.google.com/maps/dir/Current+Location/28.733829,77.269066",28.733829,77.269066
Delhi,New Delhi,Dwarka Charging Station,"Dwarka,Delhi",9319315836,Bharat DC-001,12:00 AM - 11:59 PM,"https://www.google.com/maps/dir/Uattardhona,+Uttar+Pradesh/28.58254,77.049698/@27.6731419,76.4161703,7z/data=!3m1!4b1!4m8!4m7!1m5!1m1!1s0x399be207e556dd5d:0x379527c1feb0fcbc!2m2!1d81.0648758!2d26.8912141!1m0?entry=ttu&g_ep=EgoyMDI1MDQzMC4xIKXMDSoASAFQAw%3D%3D",27.6731419,76.4161703
Delhi,New Delhi,E-Fill Electric - Raghu Charging stations,"RZ-37, Raghu Nagar Pankha Road",7834887076,AC TYPE 2,11:59 AM - 12:00 PM,"https://www.google.com/maps/dir/Current+Location/28.610867,77.09308",28.610867,77.09308
Delhi,New Delhi,Kazam - Desh Bandhu Charging Station,"3406, Desh Bandhu Gupta Road, Karol Bagh",9999560306,Bharat DC-001,12:00 AM - 11:59 PM,"https://www.google.com/maps/dir/Current+Location/28.653899,77.190371",28.653899,77.190371
Delhi,New Delhi,E-Fill Electric-Rohtak Charging Stations,"16/16, New Rohtak Road, Karol Bagh, Near Ingah Telephone Exchange, Karol Bagh",7834887076,AC TYPE 2,11:59 AM - 12:00 PM,"https://www.google.com/maps/dir/Current+Location/28.645536,77.181638",28.645536,77.181638
Delhi,New Delhi,UTCL - Akash charging Stations,"Akash Ganga Apartment, Pocket-4, Rohini Sector-24",7834887076,AC PLUG POINT,11:59 AM - 12:00 PM,"https://www.google.com/maps/dir/Current+Location/28.72636,77.084088",28.72636,77.084088
Delhi,New Delhi,DSIIDC Charging Stations,"A-38, DSIIDC, Bawana Industrial Area, Sec-5",7834887076,AC TYPE 2,11:59 AM - 12:00 PM,"https://www.google.com/maps/dir/Uattardhona,+Uttar+Pradesh/28.795777,77.074671/@27.7809224,76.4281114,7z/data=!3m1!4b1!4m8!4m7!1m5!1m1!1s0x399be207e556dd5d:0x379527c1feb0fcbc!2m2!1d81.0648758!2d26.8912141!1m0?entry=ttu&g_ep=EgoyMDI1MDQzMC4xIKXMDSoASAFQAw%3D%3D",27.7809224,76.4281114
Delhi,New Delhi,UTCL- Sat Bari Charging Station,Sat Bari,9818128319,AC PLUG POINT,12:00 AM - 11:59 PM,"https://www.google.com/maps/dir/Uattardhona,+Uttar+Pradesh/28.475238,77.191362/@27.6665079,76.4796546,7z/data=!3m1!4b1!4m8!4m7!1m5!1m1!1s0x399be207e556dd5d:0x379527c1feb0fcbc!2m2!1d81.0648758!2d26.8912141!1m0?entry=ttu&g_ep=EgoyMDI1MDQzMC4xIKXMDSoASAFQAw%3D%3D",27.6665079,76.4796546
Delhi,New Delhi,E-Fill Electric - Sma Charging Staions,"C 14, Plot No 65, Sma, Jahangirpuri Industrial Area, Azadpur",7834887076,AC TYPE 2,11:59 AM - 12:00 PM,"https://www.google.com/maps/dir/Uattardhona,+Uttar+Pradesh/28.726872,77.158459/@27.7446785,76.4695635,7z/data=!3m1!4b1!4m8!4m7!1m5!1m1!1s0x399be207e556dd5d:0x379527c1feb0fcbc!2m2!1d81.0648758!2d26.8912141!1m0?entry=ttu&g_ep=EgoyMDI1MDQzMC4xIKXMDSoASAFQAw%3D%3D",27.7446785,76.4695635
Delhi,New Delhi,UTCL-Sanjay Gandhi Transport Charging Station,C W 53 Sanjay Ghandi Transport Nagar,9311335441,AC PLUG POINT,11:59 AM - 12:00 PM,"https://www.google.com/maps/dir/Current+Location/28.739506,77.149389",28.739506,77.149389
Delhi,New Delhi,Bolt - F Block Vikas Puri Charging Station,F 234 Vikashuri,9654501710,Socket3PIN,06:00 AM - 10:00 PM,"https://www.google.com/maps/dir/Uattardhona,+Uttar+Pradesh/28.641221,77.071104/@27.7007738,76.4268356,7z/data=!3m1!4b1!4m8!4m7!1m5!1m1!1s0x399be207e556dd5d:0x379527c1feb0fcbc!2m2!1d81.0648758!2d26.8912141!1m0?entry=ttu&g_ep=EgoyMDI1MDQzMC4xIKXMDSoASAFQAw%3D%3D",27.7007738,76.4268356
Delhi,New Delhi,BSES - Shakti Kiran Charging Station,"Shakti Kiran, Near Karkarduma Court Metro Station, Vishwas Nagar Extension, Vishwas Nagar, Shahdara",1132586044,Bharat AC001AC TYPE 2Bharat DC-001,09:00 AM - 05:30 PM,"https://www.google.com/maps/dir/Current+Location/28.656449,77.297722",28.656449,77.297722
Delhi,New Delhi,UTPL- Jasola Vihar Charging Station,166c Pocket 12 Jasola Vihar,8810438871,AC PLUG POINT,24 Hours,"https://www.google.com/maps/dir/Current+Location/28.550354,77.288438",28.550354,77.288438
Delhi,New Delhi,Kazam - RYAN Charging Stations,"B8-19C, Near Ryan International School, Mayur Vihar, Mayur Vihar Phase - 3, Sector C, Kondli, New Delhi",7834887076,AC PLUG POINT,12:00 AM - 11:59 PM,"https://www.google.com/maps/dir/Uattardhona,+Uttar+Pradesh/28.734545,77.094824/@27.7455023,76.4377819,7z/data=!3m1!4b1!4m8!4m7!1m5!1m1!1s0x399be207e556dd5d:0x379527c1feb0fcbc!2m2!1d81.0648758!2d26.8912141!1m0?entry=ttu&g_ep=EgoyMDI1MDQzMC4xIKXMDSoASAFQAw%3D%3D",27.7455023,76.4377819
Delhi,New Delhi,UTCL - Panchsheel Vihar Charging Station,"C 9, Panchsheel Vihar",8045688448,AC PLUG POINT,24 Hours,"https://www.google.com/maps/dir/Current+Location/28.534449,77.21938",28.534449,77.21938
Delhi,New Delhi,UTPL - Karkari Road Charging Station,"555/1, Karkari Road, Viswash Nagar",9756297397,AC PLUG POINT,12:00 AM - 11:59 PM,"https://www.google.com/maps/dir/Current+Location/28.66584,77.293268",28.66584,77.293268
Delhi,New Delhi,E-Fill Electric - Shahdra Charging Station,"3/6, Shahdra GT Road Nearby HP Petrol Pump",7834887076,AC TYPE 2,11:59 AM - 12:00 PM,"https://www.google.com/maps/dir/Current+Location/28.672657,77.252795",28.672657,77.252795
Delhi,New Delhi,UTPL - South Ganesh Charging Station,South Ganesh Nagar,8045688448,AC PLUG POINT,24 Hours,"https://www.google.com/maps/dir/Current+Location/28.624736,77.283913",28.624736,77.283913
Delhi,New Delhi,Kazam - Dwarka Charging Station,Dwarka,9717422072,AC PLUG POINT,12:00 AM - 11:59 PM,"https://www.google.com/maps/dir/Uattardhona,+Uttar+Pradesh/28.6128,77.027931/@27.6853342,76.4050835,7z/data=!3m1!4b1!4m8!4m7!1m5!1m1!1s0x399be207e556dd5d:0x379527c1feb0fcbc!2m2!1d81.0648758!2d26.8912141!1m0?entry=ttu&g_ep=EgoyMDI1MDQzMC4xIKXMDSoASAFQAw%3D%3D",27.6853342,76.4050835
Delhi,New Delhi,DELTA - Banarsi Das Estate Charging Station,"Banarsi Das Estate, Timarpur",7834887076,Bharat AC001,24 Hours,"https://www.google.com/maps/dir/Current+Location/28.697447,77.215707",28.697447,77.215707
Delhi,New Delhi,PMPL - Jasola Charging Station,"Kos Minar Road, Jasola",9999815600,Bharat DC-001,12:00 AM - 11:59 PM,"https://www.google.com/maps/dir/Current+Location/28.548146,77.291446",28.548146,77.291446
Delhi,New Delhi,Statiq-Faction Automobiles Pvt. Ltd. Charging Station,"Plot No.4, Opp Kanishka Farm, Near Rama Vihar Bus Stand Main Kanjhawala Raod",7834887076,AC TYPE 2,11:59 AM - 12:00 PM,"https://www.google.com/maps/dir/Uattardhona,+Uttar+Pradesh/28.728128,77.046547/@27.7248709,76.4146042,7z/data=!3m1!4b1!4m8!4m7!1m5!1m1!1s0x399be207e556dd5d:0x379527c1feb0fcbc!2m2!1d81.0648758!2d26.8912141!1m0?entry=ttu&g_ep=EgoyMDI1MDQzMC4xIKXMDSoASAFQAw%3D%3D",27.7248709,76.4146042
Delhi,New Delhi,UTPL- yamuna vihar Charging Station,C7139 Yamuna Vihar,9873421422,AC PLUG POINT,24 Hours,"https://www.google.com/maps/dir/Uattardhona,+Uttar+Pradesh/28.702819,77.269849/@27.7074607,76.5176512,7z/data=!3m1!4b1!4m8!4m7!1m5!1m1!1s0x399be207e556dd5d:0x379527c1feb0fcbc!2m2!1d81.0648758!2d26.8912141!1m0?entry=ttu&g_ep=EgoyMDI1MDQzMC4xIKXMDSoASAFQAw%3D%3D",27.7074607,76.5176512
Delhi,New Delhi,DISIDC Bawana Charging Stations,"D-99, Sector-5, DISIDC Bawana IndustrialAre A, Delhi-110039",7834887076,Type 2,12:00 AM - 11:59 PM,"https://www.google.com/maps/dir/Uattardhona,+Uttar+Pradesh/28.797157,77.086115/@27.7611148,76.4343757,7z/data=!3m1!4b1!4m8!4m7!1m5!1m1!1s0x399be207e556dd5d:0x379527c1feb0fcbc!2m2!1d81.0648758!2d26.8912141!1m0?entry=ttu&g_ep=EgoyMDI1MDQzMC4xIKXMDSoASAFQAw%3D%3D",27.7611148,76.4343757
Delhi,New Delhi,BSES - Khosla Capital Solutions Charging Station,Khosla Capital Solutions P Ltd,1142111808,AC TYPE 2Bharat DC-001,24 Hours,"https://www.google.com/maps/dir/Uattardhona,+Uttar+Pradesh/28.711231,77.075368/@27.7248709,76.4287312,7z/data=!3m1!4b1!4m8!4m7!1m5!1m1!1s0x399be207e556dd5d:0x379527c1feb0fcbc!2m2!1d81.0648758!2d26.8912141!1m0?entry=ttu&g_ep=EgoyMDI1MDQzMC4xIKXMDSoASAFQAw%3D%3D",27.7248709,76.4287312
Delhi,New Delhi,E-Fill Electric - Khajoori khas Charging Stations,"B-193, Gali No.-16, Khajoori Khas, North East",7834887076,AC TYPE 2,11:59 AM - 12:00 PM,"https://www.google.com/maps/dir/Current+Location/28.696017,77.265654",28.696017,77.265654
Delhi,New Delhi,EV- Charging Station,"B 494, Welding Wali Galli, Block C, Ashok Nagar Extension, New Ashok Nagar",8668292491,AC PLUG POINT,12:00 AM - 11:59 PM,"https://www.google.com/maps/dir/Current+Location/28.5892,77.3021",28.5892,77.3021
Delhi,New Delhi,Rajapur Charging Station,"27/1, Rajapur, Pocket 27/1, Sector 9, Rohini",,AC TYPE 2,11:59 AM - 12:00 PM,"https://www.google.com/maps/dir/Uattardhona,+Uttar+Pradesh/28.712653,77.122843/@27.7446785,76.4527191,7z/data=!3m1!4b1!4m8!4m7!1m5!1m1!1s0x399be207e556dd5d:0x379527c1feb0fcbc!2m2!1d81.0648758!2d26.8912141!1m0?entry=ttu&g_ep=EgoyMDI1MDQzMC4xIKXMDSoASAFQAw%3D%3D",27.7446785,76.4527191
Delhi,New Delhi,Kazam - Rajinder Nagar Charging Station,Rajinder Nagar,9811382705,AC TYPE 2,12:00 AM - 11:59 PM,"https://www.google.com/maps/dir/Current+Location/28.637586,77.182174",28.637586,77.182174
Delhi,New Delhi,Electreefi - Jamia Islamia Charging Station,Parking Jamia Islamia Metro Station,9818839662,AC PLUG POINT,24 Hours,"https://www.google.com/maps/dir/Current+Location/28.562905,77.286417",28.562905,77.286417
Delhi,New Delhi,EV- Charging Station,"Sector 27 Dwarka, Bijwasan, New Delhi, Delhi, 110061",9717422042,AC TYPE 2,12:00 AM - 11:59 PM,"https://www.google.com/maps/dir/Uattardhona,+Uttar+Pradesh/28.532659,77.052969/@27.6665079,76.4080221,7z/data=!3m1!4b1!4m8!4m7!1m5!1m1!1s0x399be207e556dd5d:0x379527c1feb0fcbc!2m2!1d81.0648758!2d26.8912141!1m0?entry=ttu&g_ep=EgoyMDI1MDQzMC4xIKXMDSoASAFQAw%3D%3D",27.6665079,76.4080221
Delhi,New Delhi,Bolt - Jhabar Charging Stations,A91 Jhabar Parak Khanpur,8045688448,AC PLUG POINT,11:59 AM - 12:00 PM,"https://www.google.com/maps/dir/Current+Location/28.506769,77.22917",28.506769,77.22917
Delhi,New Delhi,Bolt - Indra Market Charging Station,"104, Indra Market, Dakshin Puri",8045688448,AC PLUG POINT,11:59 AM - 12:00 PM,"https://www.google.com/maps/dir/Current+Location/28.520324,77.238888",28.520324,77.238888
Delhi,New Delhi,Bolt - Ramesh Motor Charging Station,"Shop No 83, Ramesh Motor Works, DDA Auto Complex, Opposite DCWA Hospital",8045688448,Socket3PIN,06:00 AM - 10:00 PM,"https://www.google.com/maps/dir/Current+Location/28.556582,77.237336",28.556582,77.237336
Delhi,New Delhi,UTPL - Navjeevan camp Charging Stations,E-471 Navjeevan Camp Govindpuri,9654998293,AC PLUG POINT,24 Hours,"https://www.google.com/maps/dir/Current+Location/28.530743,77.259396",28.530743,77.259396
Delhi,New Delhi,EESL - Greater Kailash Charging Station,"SDMC Parking, Block N Market, Greater Kailash 1",7906001402,CCS-IICHAdeMOAC TYPE 2Bharat DC-001AC TYPE,06:00 AM - 10:00 PM,"https://www.google.com/maps/dir/Current+Location/28.550329,77.233643",28.550329,77.233643
Delhi,New Delhi,Bolt - Govindpuri Charging Stations,1352/N Govindpuri Kalka Ji 13 No Main Road Baba Fateh Singh Marg,8045688448,AC PLUG POINT,11:59 AM - 12:00 PM,"https://www.google.com/maps/dir/Current+Location/28.535904,77.258542",28.535904,77.258542
Delhi,New Delhi,Bolt - Vasti sarai Charging station,19/115 Vasti Sarai Rohilla,8045688448,AC PLUG POINT,11:59 AM - 12:00 PM,"https://www.google.com/maps/dir/Current+Location/28.661275,77.191323",28.661275,77.191323
Delhi,New Delhi,UTCL - Okhla Phase II Charging Station,"Sanjay Colony Ii, Sanjay Colony, Okhla Phase 2, Okhla Industrial Estate",8447746385,AC PLUG POINT,11:59 AM - 12:00 PM,"https://www.google.com/maps/dir/Current+Location/28.5407,77.2757",28.5407,77.2757
Delhi,New Delhi,REVOS - Vishwas Charging stations,Vishwas Park Rajapuri Sector 03 Dwarka,8882378528,AC PLUG POINT,11:59 AM - 12:00 PM,"https://www.google.com/maps/dir/Uattardhona,+Uttar+Pradesh/28.612471,77.054921/@27.6877663,76.4181827,7z/data=!3m1!4b1!4m8!4m7!1m5!1m1!1s0x399be207e556dd5d:0x379527c1feb0fcbc!2m2!1d81.0648758!2d26.8912141!1m0?entry=ttu&g_ep=EgoyMDI1MDQzMC4xIKXMDSoASAFQAw%3D%3D",27.6877663,76.4181827
Delhi,New Delhi,Bolt - Madanpur Charging Stations,"C-1, Madanpur Khadar Extension, Sarita Vihar",8045688448,AC PLUG POINT,11:59 AM - 12:00 PM,"https://www.google.com/maps/dir/Current+Location/28.532068,77.309132",28.532068,77.309132
Delhi,New Delhi,Kazam - Palam Charging Station,"Old Palam Road,Dwarka",8668292491,AC PLUG POINT,12:00 AM - 11:59 PM,"https://www.google.com/maps/dir/Current+Location/28.61299,77.029602/@27.6823563,76.4061284,7z/data=!3m1!4b1?entry=ttu&g_ep=EgoyMDI1MDQzMC4xIKXMDSoASAFQAw%3D%3D",27.6823563,76.4061284
Delhi,New Delhi,UTPL - Kalyani Mandir Shalimar Bagh Charging Station,Shop No.1 Ad Market Near Kalyani Mandir Shalimar Bagh,9811300560,AC PLUG POINT,12:00 AM - 12:00 PM,"https://www.google.com/maps/dir/Current+Location/28.716117,77.168335",28.716117,77.168335
Delhi,New Delhi,UTPL - Deepali Enclave Charging Station,142 Deepali Enclave Pitampura,9350430777,Bharat AC001,12:00 AM - 11:59 PM,"https://www.google.com/maps/dir/Uattardhona,+Uttar+Pradesh/28.696372,77.11768/@27.7446785,76.4501723,7z/data=!3m1!4b1!4m8!4m7!1m5!1m1!1s0x399be207e556dd5d:0x379527c1feb0fcbc!2m2!1d81.0648758!2d26.8912141!1m0?entry=ttu&g_ep=EgoyMDI1MDQzMC4xIKXMDSoASAFQAw%3D%3D",27.7446785,76.4501723
Delhi,New Delhi,REVOS-Rohini Sector 29 Charging Station,Rohini Sector 29,9910074691,Bharat AC001,24 Hours,"https://www.google.com/maps/dir/Uattardhona,+Uttar+Pradesh/28.710063,77.135522/@27.7482755,76.4559342,7z/data=!3m1!4b1!4m8!4m7!1m5!1m1!1s0x399be207e556dd5d:0x379527c1feb0fcbc!2m2!1d81.0648758!2d26.8912141!1m0?entry=ttu&g_ep=EgoyMDI1MDQzMC4xIKXMDSoASAFQAw%3D%3D",27.7482755,76.4559342
Delhi,New Delhi,Zypp Electric - Mohan Estate Charging Station,Zypp Electric Mohan Estate Station,8884890060,Bharat AC001,12:00 AM - 11:59 PM,"https://www.google.com/maps/dir/Current+Location/28.520493,77.294174",28.520493,77.294174
Delhi,New Delhi,Zypp Electric -Mohan Estate Charging Station,Zypp Electric Mohan Estate Station,8884890060,Bharat AC001,12:00 AM - 11:59 PM,"https://www.google.com/maps/dir/Current+Location/28.520493,77.294174",28.520493,77.294174
Delhi,New Delhi,REVOS - Zypp Electric Mohan Estate Charging Station,Zypp Electric Mohan Estate Station,8884890060,Bharat AC001,12:00 AM - 11:59 PM,"https://www.google.com/maps/dir/Current+Location/28.520493,77.294174",28.520493,77.294174
Delhi,New Delhi,UTPL - Matiala Extension Charging Station,"Pocket 1, Matiala Extension",8884890060,AC PLUG POINT,12:00 AM - 11:59 PM,"https://www.google.com/maps/dir/Uattardhona,+Uttar+Pradesh/28.605667,77.056809/@27.6822935,76.4192013,7z/data=!3m1!4b1!4m8!4m7!1m5!1m1!1s0x399be207e556dd5d:0x379527c1feb0fcbc!2m2!1d81.0648758!2d26.8912141!1m0?entry=ttu&g_ep=EgoyMDI1MDQzMC4xIKXMDSoASAFQAw%3D%3D",27.6822935,76.4192013
Delhi,New Delhi,Kazam - Tri Nagar Charging Station,"Big Basket Lawrence, Jai Mata Market, Tri Nagar",9958943092,AC TYPE 2,12:00 AM - 11:59 PM,"https://www.google.com/maps/dir/Uattardhona,+Uttar+Pradesh/28.692859,77.157966/@27.7260392,76.4693905,7z/data=!3m1!4b1!4m8!4m7!1m5!1m1!1s0x399be207e556dd5d:0x379527c1feb0fcbc!2m2!1d81.0648758!2d26.8912141!1m0?entry=ttu&g_ep=EgoyMDI1MDQzMC4xIKXMDSoASAFQAw%3D%3D",27.7260392,76.4693905
Delhi,New Delhi,UTPL- ETO Branch Office Charging Station,ETO Branch Office,8045688448,AC PLUG POINT,24 Hours,"https://www.google.com/maps/dir/Current+Location/28.562594,77.287435",28.562594,77.287435
Delhi,New Delhi,Sri Krishna - Charging Station,"Sri Krishna Chaitanya Mahaprabhu Marg, Block F, Police Colony, Hauz Khas, New Delhi",9975950100,CCS-IIBharat AC001AC TYPE 2,11:59 AM - 12:00 PM,"https://www.google.com/maps/dir/Current+Location/28.547081,77.206921",28.547081,77.206921
Delhi,New Delhi,UTPL - Lajpat Nagar 1 Charging Station,"E -12, Ground Floor, Lajpat Nagar 1, New Delhi",8884890060,AC PLUG POINT,12:00 AM - 11:59 PM,"https://www.google.com/maps/dir/Current+Location/28.57467,77.238403",28.57467,77.238403
Delhi,New Delhi,REVOS - Vishkarma charging Stations,A-2 Vishkarma Colony Pul Phelad Pur,9582400196,AC PLUG POINT,11:59 AM - 12:00 PM,"https://www.google.com/maps/dir/Current+Location/28.499635,77.287102",28.499635,77.287102
Delhi,New Delhi,Rohini Charging Stations,"C-10/54,Shop No 1 Sector -15 ,Rohini",8130078573,AC PLUG POINT,11:59 AM - 12:00 PM,"https://www.google.com/maps/dir/Uattardhona,+Uttar+Pradesh/28.731619,77.126785/@27.7457892,76.4543035,7z/data=!3m1!4b1!4m8!4m7!1m5!1m1!1s0x399be207e556dd5d:0x379527c1feb0fcbc!2m2!1d81.0648758!2d26.8912141!1m0?entry=ttu&g_ep=EgoyMDI1MDQzMC4xIKXMDSoASAFQAw%3D%3D",27.7457892,76.4543035
Delhi,New Delhi,UTCL- Vikas Puri Charging Stations,"Shop No.12 DDA Market Jg-2 Block , Vikas Puri",8447746385,AC PLUG POINT,24 Hours,"https://www.google.com/maps/dir/Uattardhona,+Uttar+Pradesh/28.638723,77.072402/@27.6963252,76.4248965,7z/data=!3m1!4b1!4m8!4m7!1m5!1m1!1s0x399be207e556dd5d:0x379527c1feb0fcbc!2m2!1d81.0648758!2d26.8912141!1m0?entry=ttu&g_ep=EgoyMDI1MDQzMC4xIKXMDSoASAFQAw%3D%3D",27.6963252,76.4248965
Delhi,New Delhi,REVOS - M.S Charging Stations,J-6 Pal Chowk M.S Park,9958831565,Bharat AC001,10:00 AM - 07:00 PM,"https://www.google.com/maps/dir/Current+Location/28.662654,77.290119",28.662654,77.290119
Delhi,New Delhi,EESL - DTC Plaza Charging Station,"A48, Block A, Sector 8 Dwarka, Dwarka",18001803580,AC TYPE 2,06:00 AM - 10:00 PM,"https://www.google.com/maps/dir/Uattardhona,+Uttar+Pradesh/28.576241,77.069491/@27.6742526,76.423908,7z/data=!3m1!4b1!4m8!4m7!1m5!1m1!1s0x399be207e556dd5d:0x379527c1feb0fcbc!2m2!1d81.0648758!2d26.8912141!1m0?entry=ttu&g_ep=EgoyMDI1MDQzMC4xIKXMDSoASAFQAw%3D%3D",27.6742526,76.423908
Delhi,New Delhi,REVOS-Rohtak Charging Stations,Shop No.72/13 Main Rohtak Road Swarn Park,9213397041,AC PLUG POINT,11:59 AM - 12:00 PM,"https://www.google.com/maps/dir/Uattardhona,+Uttar+Pradesh/28.682642,77.040983/@27.7182715,76.4118191,7z/data=!3m1!4b1!4m8!4m7!1m5!1m1!1s0x399be207e556dd5d:0x379527c1feb0fcbc!2m2!1d81.0648758!2d26.8912141!1m0?entry=ttu&g_ep=EgoyMDI1MDQzMC4xIKXMDSoASAFQAw%3D%3D",27.7182715,76.4118191
Delhi,New Delhi,REVOS - Rajdhani Charging Stations,Rajdhani Park Metro,8377926006,AC PLUG POINT,11:59 AM - 12:00 PM,"https://www.google.com/maps/dir/Current+Location/28.6823646,77.04292/@27.7181329,76.4125736,7z/data=!3m1!4b1?entry=ttu&g_ep=EgoyMDI1MDQzMC4xIKXMDSoASAFQAw%3D%3D",27.7181329,76.4125736
Delhi,New Delhi,UTPL - Dwarka Charging Station,Dwarka Sector 2 Depot,8330083300,AC PLUG POINT,24 Hours,"https://www.google.com/maps/dir/Uattardhona,+Uttar+Pradesh/28.598549,77.064853/@27.656117,76.4230788,7z/data=!3m1!4b1!4m8!4m7!1m5!1m1!1s0x399be207e556dd5d:0x379527c1feb0fcbc!2m2!1d81.0648758!2d26.8912141!1m0?entry=ttu&g_ep=EgoyMDI1MDQzMC4xIKXMDSoASAFQAw%3D%3D",27.656117,76.4230788
Delhi,New Delhi,REVOS-Saket Charging Stations,Near Saket Metro Station,9990653930,AC PLUG POINT,11:59 AM - 12:00 PM,"https://www.google.com/maps/dir/Current+Location/28.521158,77.20217",28.521158,77.20217
Delhi,New Delhi,"CESL - DTC EV Plaza, Nehru Place Charging Station","CESL - DTC EV Plaza, Nehru Place Terminal",,CCS-IIBharat AC001CHAdeMOAC TYPE 2,12:00 AM - 11:59 PM,"https://www.google.com/maps/dir/Current+Location/28.548023,77.254916",28.548023,77.254916
Delhi,New Delhi,EESL - DTC Plaza Charging Station,"Cesl Dtc Ev Plaza, Mehrauli Terminal",18001803580,IEC 60309AC TYPE 1,06:00 AM - 10:00 PM,"https://www.google.com/maps/dir/Current+Location/28.522739,77.182316",28.522739,77.182316
Delhi,New Delhi,Kazam - Kalkaji Charging Station,"B 1131, Transit Camp,Govindpuri, Kalkaji",9958943092,Wall (BS1363),10:00 AM - 07:00 PM,"https://www.google.com/maps/dir/Current+Location/28.530262,77.26954",28.530262,77.26954
Delhi,New Delhi,REVOS - Devli Charging Stations,Devli Road,9311177345,AC PLUG POINT,11:59 AM - 12:00 PM,"https://www.google.com/maps/dir/Current+Location/28.508699,77.232314",28.508699,77.232314
Delhi,New Delhi,"EESL - SDMC Parking, The Janak Commercial Complex Charging Station","SDMC Parking, The Janak Commercial",18001803580,CCS-IICHAdeMOAC TYPE 2,06:00 AM - 10:00 PM,"https://www.google.com/maps/dir/Current+Location/28.611038,77.094118",28.611038,77.094118
Delhi,New Delhi,KAZAM-Patel Charging Stations,"C-39 Main Market , West Patel Nagar.",8045688455,AC PLUG POINT,24 Hours,"https://www.google.com/maps/dir/Current+Location/28.629851,77.145953",28.629851,77.145953
Delhi,New Delhi,CESL - SDMC Charging Station,"SDMC Parking, Sector 6 Market, Dwarka",8330083300,CCS-IICHAdeMOAC TYPE 2,12:00 AM - 11:59 PM,"https://www.google.com/maps/dir/Current+Location/28.586868,77.064878",28.586868,77.064878
Delhi,New Delhi,CESL - Dwarka Sec-12 Charging Station,"SDMC Parking, Sector 12, Dwarka",18001803580,CCS-IICHAdeMOAC TYPE 2,12:00 AM - 11:59 PM,"https://www.google.com/maps/dir/Uattardhona,+Uttar+Pradesh/28.593766,77.043491/@27.6784282,76.413069,7z/data=!3m1!4b1!4m8!4m7!1m5!1m1!1s0x399be207e556dd5d:0x379527c1feb0fcbc!2m2!1d81.0648758!2d26.8912141!1m0?entry=ttu&g_ep=EgoyMDI1MDQzMC4xIKXMDSoASAFQAw%3D%3D",27.6784282,76.413069
Delhi,New Delhi,Prerna Charging Station,J24 Prerna Chok Kanhaiya Nagar,9136359016,AC PLUG POINT,11:59 AM - 12:00 PM,"https://www.google.com/maps/dir/Uattardhona,+Uttar+Pradesh/28.681114,77.165206/@27.7200164,76.4739333,7z/data=!3m1!4b1!4m8!4m7!1m5!1m1!1s0x399be207e556dd5d:0x379527c1feb0fcbc!2m2!1d81.0648758!2d26.8912141!1m0?entry=ttu&g_ep=EgoyMDI1MDQzMC4xIKXMDSoASAFQAw%3D%3D",27.7200164,76.4739333
Delhi,New Delhi,Shastri Charging Station,B 70/4 Gali No 7 Shastri Park Gas Godam,9891000281,AC PLUG POINT,11:59 AM - 12:00 PM,"https://www.google.com/maps/dir/Current+Location/28.6683816,77.250154",28.6683816,77.250154
Delhi,New Delhi,Malika Charging Station,251/252 Malika Ganj Near Nigam Pratibha Balika Vidyalay,9891451007,AC PLUG POINT,11:59 AM - 12:00 PM,"https://www.google.com/maps/dir/Current+Location/28.7079043,77.090727",28.7079043,77.090727
Delhi,New Delhi,laxmi Charging Station,Laxmi Nagar,9582174864,Bharat AC001,Closed Now,"https://www.google.com/maps/dir/Current+Location/28.627978,77.278541",28.627978,77.278541
Delhi,New Delhi,UTPL - Reghar pura Karol Bagh,"4908/41, Reghar Pura, Karol Bagh",8045688448,AC PLUG POINT,24 Hours,"https://www.google.com/maps/dir/Current+Location/28.653341,77.187766",28.653341,77.187766
Delhi,New Delhi,NTPC- Paras Automobiles Charging Station,"Bijwasan Rd, Bijwasan, New Delhi",9650992422,Bharat AC001Bharat DC-001,12:00 AM - 11:59 PM,"https://www.google.com/maps/dir/Current+Location/28.531522,77.062709",28.531522,77.062709
Delhi,New Delhi,Fortum - Hundred Percent F Station,Hundred Percent F Station,9650992422,CCS-IICHAdeMOBharat DC-001,10:00 AM - 07:00 PM,"https://www.google.com/maps/dir/Uattardhona,+Uttar+Pradesh/28.578571,77.059438/@27.6767389,76.4203483,7z/data=!3m1!4b1!4m8!4m7!1m5!1m1!1s0x399be207e556dd5d:0x379527c1feb0fcbc!2m2!1d81.0648758!2d26.8912141!1m0?entry=ttu&g_ep=EgoyMDI1MDQzMC4xIKXMDSoASAFQAw%3D%3D",27.6767389,76.4203483
Delhi,New Delhi,UTCL- Udyog Charging Stations,A 5 Dsidc Udyog Nagar Nr Metro Pillar 334 Delhi 41,9871860001,AC PLUG POINT,11:59 AM - 12:00 PM,"https://www.google.com/maps/dir/Uattardhona,+Uttar+Pradesh/28.6811192,77.080737/@27.7201586,76.4312354,7z/data=!3m1!4b1!4m8!4m7!1m5!1m1!1s0x399be207e556dd5d:0x379527c1feb0fcbc!2m2!1d81.0648758!2d26.8912141!1m0?entry=ttu&g_ep=EgoyMDI1MDQzMC4xIKXMDSoASAFQAw%3D%3D",27.7201586,76.4312354
Delhi,New Delhi,Basai Charging Station,Wz T3 Basai Daapur Main Najafgarh Road,9871993080,Bharat AC001,Closed Now,"https://www.google.com/maps/dir/Current+Location/28.657731,77.134511",28.657731,77.134511
Delhi,New Delhi,Bolt - Plot 5 Charging Station,"Flat No 13, Plot 5",8800603762,Bharat AC001,06:00 AM - 10:00 PM,"https://www.google.com/maps/dir/Uattardhona,+Uttar+Pradesh/28.730791,77.1309/@27.7482755,76.4567806,7z/data=!3m1!4b1!4m8!4m7!1m5!1m1!1s0x399be207e556dd5d:0x379527c1feb0fcbc!2m2!1d81.0648758!2d26.8912141!1m0?entry=ttu&g_ep=EgoyMDI1MDQzMC4xIKXMDSoASAFQAw%3D%3D",27.7482755,76.4567806
Delhi,New Delhi,REVOS - Mohit Charging Station,Shop No 1 Mohit Nagar Kakrola,9310969511,AC TYPE 2,11:59 AM - 12:00 PM,"https://www.google.com/maps/dir/Current+Location/28.61852,77.028269",28.61852,77.028269
Delhi,New Delhi,UTPL - Rohini Charging Station,"Sector 14, Rohini",9310430888,AC TYPE 2,24 Hours,"https://www.google.com/maps/dir/Uattardhona,+Uttar+Pradesh/28.71215,77.132151/@27.7482755,76.4559342,7z/data=!3m1!4b1!4m8!4m7!1m5!1m1!1s0x399be207e556dd5d:0x379527c1feb0fcbc!2m2!1d81.0648758!2d26.8912141!1m0?entry=ttu&g_ep=EgoyMDI1MDQzMC4xIKXMDSoASAFQAw%3D%3D",27.7482755,76.4559342
Delhi,New Delhi,UTPL - Kamruddin Nagar Charging Station,"H. No, 14 9/15, Chaju Ram Colony, Yadav Park Extension, Kamruddin Nagar, Nangloi",9999638254,AC PLUG POINT,12:00 AM - 12:00 PM,"https://www.google.com/maps/dir/Uattardhona,+Uttar+Pradesh/28.667523,77.055005/@27.7204395,76.418812,7z/data=!3m1!4b1!4m8!4m7!1m5!1m1!1s0x399be207e556dd5d:0x379527c1feb0fcbc!2m2!1d81.0648758!2d26.8912141!1m0?entry=ttu&g_ep=EgoyMDI1MDQzMC4xIKXMDSoASAFQAw%3D%3D",27.7204395,76.418812
Delhi,New Delhi,UTPL- Jhilmil Charging Station,"M8F6+VJ9, Jhilmil Industrial Area, Jhilmil Colony,",8045688448,AC PLUG POINT,24 Hours,"https://www.google.com/maps/dir/Current+Location/28.674738,77.307548",28.674738,77.307548
Delhi,New Delhi,Sun Mobility - Uttam Singh Narula Charging Station,"Uttam Singh Narula Marg, Rajinder Nagar",8826871735,Bharat AC001,11:59 AM - 12:00 PM,"https://www.google.com/maps/dir/Current+Location/28.642627,77.178396/@27.7007636,76.4784856,7z/data=!3m1!4b1?entry=ttu&g_ep=EgoyMDI1MDQzMC4xIKXMDSoASAFQAw%3D%3D",27.7007636,76.4784856
Delhi,New Delhi,Mohan- Charging Station,"A-1, D.K Road Mohan Garden",9891364497,AC PLUG POINT,11:59 AM - 12:00 PM,"https://www.google.com/maps/dir/Uattardhona,+Uttar+Pradesh/28.6260274,77.04457/@27.6925017,76.4126826,7z/data=!3m1!4b1!4m8!4m7!1m5!1m1!1s0x399be207e556dd5d:0x379527c1feb0fcbc!2m2!1d81.0648758!2d26.8912141!1m0?entry=ttu&g_ep=EgoyMDI1MDQzMC4xIKXMDSoASAFQAw%3D%3D",27.6925017,76.4126826
Delhi,New Delhi,IOCL - Uttam Nagar Charging Station,Uttam Nagar East Metro Parking,8826871735,Bharat AC001,11:59 AM - 12:00 PM,"https://www.google.com/maps/dir/Uattardhona,+Uttar+Pradesh/28.624714,77.065341/@27.6921911,76.4239886,7z/data=!3m1!4b1!4m8!4m7!1m5!1m1!1s0x399be207e556dd5d:0x379527c1feb0fcbc!2m2!1d81.0648758!2d26.8912141!1m0?entry=ttu&g_ep=EgoyMDI1MDQzMC4xIKXMDSoASAFQAw%3D%3D",27.6921911,76.4239886
Delhi,New Delhi,"Sun Mobility - Nangli Jalib, Charging Statio","Nangli Jalib, Janakpuri",8826871735,Bharat AC001,11:59 AM - 12:00 PM,"https://www.google.com/maps/dir/Uattardhona,+Uttar+Pradesh/28.632016,77.086487/@27.7043708,76.4344822,7z/data=!3m1!4b1!4m8!4m7!1m5!1m1!1s0x399be207e556dd5d:0x379527c1feb0fcbc!2m2!1d81.0648758!2d26.8912141!1m0?entry=ttu&g_ep=EgoyMDI1MDQzMC4xIKXMDSoASAFQAw%3D%3D",27.7043708,76.4344822
Delhi,New Delhi,Sun Mobility-Shadipur Charging Station,"Main Patel Rd, Block W, DTC Colony,",8826871735,Bharat AC001,11:59 AM - 12:00 PM,"https://www.google.com/maps/dir/Current+Location/28.651641,77.157934",28.651641,77.157934
Delhi,New Delhi,IOCL - Main Road Charging Station,"8c,Main Road,Dwarka,New",9818130888,Bharat DC-001,10:00 AM - 07:00 PM,"https://www.google.com/maps/dir/Uattardhona,+Uttar+Pradesh/28.5898222,77.069725/@27.676436,76.4258981,7z/data=!3m1!4b1!4m8!4m7!1m5!1m1!1s0x399be207e556dd5d:0x379527c1feb0fcbc!2m2!1d81.0648758!2d26.8912141!1m0?entry=ttu&g_ep=EgoyMDI1MDQzMC4xIKXMDSoASAFQAw%3D%3D",27.676436,76.4258981
Delhi,New Delhi,Okhla Charging Station,Okhla Phase 2,9871106964,Bharat AC001,Closed Now,"https://www.google.com/maps/dir/Current+Location/28.533398,77.280267",28.533398,77.280267
Delhi,New Delhi,Bhagawati Charging Station,"C-119, Bhagawati Garden Extn. Uttam Nagar New Delhi",8505965232,AC PLUG POINT,24 Hours,"https://www.google.com/maps/dir/Current+Location/28.624625,77.030944",28.624625,77.030944
Delhi,New Delhi,Dwarika Charging Station,Dwarika More,9717728228,Bharat AC001,Closed Now,"https://www.google.com/maps/dir/Uattardhona,+Uttar+Pradesh/28.623483,77.027914/@27.6911961,76.4044096,7z/data=!3m1!4b1!4m8!4m7!1m5!1m1!1s0x399be207e556dd5d:0x379527c1feb0fcbc!2m2!1d81.0648758!2d26.8912141!1m0?entry=ttu&g_ep=EgoyMDI1MDQzMC4xIKXMDSoASAFQAw%3D%3D",27.6911961,76.4044096
Delhi,New Delhi,ESI HOSPITAL -TOWARDS DND Charging Station(Private Charger ),"ESI HOSPITAL TOWARDS DND, New Delhi, Delhi",18008330809,Bharat AC001,11:59 AM - 12:00 PM,"https://www.google.com/maps/dir/Current+Location/28.659129,77.129156",28.659129,77.129156
Delhi,New Delhi,UTPL - Sewak Park Charging Station,"Plot No-83/A, Patel Garden Extension, Sewak Park Side",8045688448,AC PLUG POINT,24 Hours,"https://www.google.com/maps/dir/Uattardhona,+Uttar+Pradesh/28.61734,77.029185/@27.6889312,76.4057927,7z/data=!3m1!4b1!4m8!4m7!1m5!1m1!1s0x399be207e556dd5d:0x379527c1feb0fcbc!2m2!1d81.0648758!2d26.8912141!1m0?entry=ttu&g_ep=EgoyMDI1MDQzMC4xIKXMDSoASAFQAw%3D%3D",27.6889312,76.4057927
Delhi,New Delhi,Mahatma Gandhi Marg-Charging Station(Private Charger ),"Mahatma Gandhi Marg, Gas Turbine Power Station, IP Estate",9871048895,Bharat AC001,11:59 AM - 12:00 PM,"https://www.google.com/maps/dir/Current+Location/28.621557,77.250088",28.621557,77.250088
Delhi,New Delhi,REVOS - Kakrola Charging Stations,Shop No 1 Mohit Nagar Kakrola,9310969511,Bharat AC001,11:59 AM - 12:00 PM,"https://www.google.com/maps/dir/Uattardhona,+Uttar+Pradesh/28.617618,77.027237/@27.6889858,76.4049464,7z/data=!3m1!4b1!4m8!4m7!1m5!1m1!1s0x399be207e556dd5d:0x379527c1feb0fcbc!2m2!1d81.0648758!2d26.8912141!1m0?entry=ttu&g_ep=EgoyMDI1MDQzMC4xIKXMDSoASAFQAw%3D%3D",27.6889858,76.4049464
Delhi,New Delhi,Roshan Charging Stations,Roshan Gardan Old Kakrola Najafgarh,7011175818,AC TYPE 2,11:59 AM - 12:00 PM,"https://www.google.com/maps/dir/Uattardhona,+Uttar+Pradesh/28.609887,76.996785/@27.6844022,76.3896927,7z/data=!3m1!4b1!4m8!4m7!1m5!1m1!1s0x399be207e556dd5d:0x379527c1feb0fcbc!2m2!1d81.0648758!2d26.8912141!1m0?entry=ttu&g_ep=EgoyMDI1MDQzMC4xIKXMDSoASAFQAw%3D%3D",27.6844022,76.3896927
Delhi,New Delhi,REVOS - Psp Charging Station,Psp Market Rohini Sector 17,9289634699,Bharat AC001,12:00 AM - 11:59 PM,"https://www.google.com/maps/dir/Uattardhona,+Uttar+Pradesh/28.7310853,77.143798/@27.7482755,76.4629062,7z/data=!3m1!4b1!4m8!4m7!1m5!1m1!1s0x399be207e556dd5d:0x379527c1feb0fcbc!2m2!1d81.0648758!2d26.8912141!1m0?entry=ttu&g_ep=EgoyMDI1MDQzMC4xIKXMDSoASAFQAw%3D%3D",27.7482755,76.4629062
Delhi,New Delhi,UTPL - Palate Of Delhi Foodcourt Charging Station,Palate Of Delhi Foodcourt,9013246987,AC PLUG POINT,24 Hours,"https://www.google.com/maps/dir/Current+Location/28.592325,77.161748",28.592325,77.161748
Delhi,New Delhi,ASHOK - Charging Stations,ASHOK VIHAR RESIDENTS SUVIDHA SAMITI,9311041935,Bharat AC001,12:00 AM - 11:59 PM,"https://www.google.com/maps/dir/Current+Location/28.695527,77.171841",28.695527,77.171841
Delhi,New Delhi,REVOS - LOKNAYAK Charging Station,Pocket B1 DDA FLATS LOKNAYAK PURAM,9990820830,Bharat AC001,12:00 AM - 11:59 PM,"https://www.google.com/maps/dir/Current+Location/28.660383,77.005827",28.660383,77.005827
Delhi,New Delhi,UTPL- Bawana Charging Station,F 87 Sector 2 Bawana Industrial Area,8045688448,AC PLUG POINT,24 Hours,"https://www.google.com/maps/dir/Current+Location/28.797955,77.052317",28.797955,77.052317
Delhi,New Delhi,GLORIOUS Charging Station,"RWA, GLORIOUS APARTMENT, POCKET B2, LOKNAYAK PURAM",9717580210,Bharat AC001,Closed Now,"https://www.google.com/maps/dir/Current+Location/28.6606848,77.010657",28.6606848,77.010657
Delhi,New Delhi,Sun Mobility - CGHS Colony Charging Station,"CGHS Colony, Vasant Vihar",8851454727,Bharat AC001,11:59 AM - 12:00 PM,"https://www.google.com/maps/dir/Current+Location/28.557769,77.160989",28.557769,77.160989
Delhi,New Delhi,Sun Mobility - Baljit Nagar Charging Station,"Main Patel Rd, Block B, Baljit Nagar, Shadipur",9871048895,Bharat AC001AC TYPE 2,11:59 AM - 12:00 PM,"https://www.google.com/maps/dir/Current+Location/28.6544,77.153695/@27.7136248,76.4578551,7z/data=!3m1!4b1?entry=ttu&g_ep=EgoyMDI1MDQzMC4xIKXMDSoASAFQAw%3D%3D",27.7136248,76.4578551
Delhi,New Delhi,Sun Mobility - Nawada House Complex Charging Station,"Najafgarh Road, Block F, Nawada House Complex",9871048895,Bharat AC001AC TYPE 2,11:59 AM - 12:00 PM,"https://www.google.com/maps/dir/Current+Location/28.626327,77.069194/@27.6926342,76.4293754,7z/data=!3m1!4b1?entry=ttu&g_ep=EgoyMDI1MDQzMC4xIKXMDSoASAFQAw%3D%3D",27.6926342,76.4293754
Delhi,New Delhi,REVOS - Chilla Village Charging Station,Chilla Village,9818536643,Bharat AC001,10:00 AM - 07:00 PM,"https://www.google.com/maps/dir/Current+Location/28.599794,77.293823",28.599794,77.293823
Delhi,New Delhi,Bawana industrial- Charging Station,F 87 Sector 2 Bawana Industrial Area Delhi,7011585781,Bharat AC001,12:00 AM - 11:59 PM,"https://www.google.com/maps/dir/V3QF%2BWCX,+Uattardhona,+Uttar+Pradesh+226010/28.79795,77.052225/@27.8001975,76.4188043,7z/data=!3m1!4b1!4m8!4m7!1m5!1m1!1s0x399be2006c71e24d:0x5989857f6b7db633!2m2!1d81.0738702!2d26.889762!1m0?entry=ttu&g_ep=EgoyMDI1MDQzMC4xIKXMDSoASAFQAw%3D%3D",27.8001975,76.4188043
Delhi,New Delhi,UTPL- Malik Pur Charging Station,"190, Malik Pur Village, Near Model Town, First Red Light",8045688448,AC PLUG POINT,24 Hours,"https://www.google.com/maps/dir/Current+Location/28.550526,76.900117",28.550526,76.900117
Delhi,New Delhi,BSES - Paharganj Side (Private - Charger),"J6V9+5HQ, Ratan Lal Market, Kaseru Walan, Paharganj",1123384416,Bharat DC-001,12:00 AM - 11:59 PM,"https://www.google.com/maps/dir/Current+Location/28.643007,77.218971",28.643007,77.218971
Delhi,New Delhi,REVOS - Kanjhawala Charging Station,"Shop No 1 Kanjhawala Road Near Shamshan Ghat ,Sukhbir Nagar",7011933060,Bharat AC001,10:00 AM - 07:00 PM,"https://www.google.com/maps/dir/Current+Location/28.728148,77.047487",28.728148,77.047487
Delhi,New Delhi,UTPL- Electric Vehicle Charging Station,"Than Singh Nagar, Plot No 76, Anand Parbat",8045688448,AC PLUG POINT,24 Hours,"https://www.google.com/maps/dir/Current+Location/28.659724,77.182365",28.659724,77.182365
Delhi,New Delhi,EXCITEON Charging Station,P- 72 EXCITEON MOHAN GARDEN,9205226397,Bharat AC001,Closed Now,"https://www.google.com/maps/dir/V3QF%2BWCX,+Uattardhona,+Uttar+Pradesh+226010/28.620105,77.039171/@27.6915653,76.4153928,7z/data=!3m1!4b1!4m8!4m7!1m5!1m1!1s0x399be2006c71e24d:0x5989857f6b7db633!2m2!1d81.0738702!2d26.889762!1m0?entry=ttu&g_ep=EgoyMDI1MDQzMC4xIKXMDSoASAFQAw%3D%3D",27.6915653,76.4153928
Delhi,New Delhi,BSES - Anand Vihar Charging Station,Anand Vihar Railway Station,9717632990,Bharat AC001,24 Hours,"https://www.google.com/maps/dir/Current+Location/28.64714,77.315773",28.64714,77.315773
Delhi,New Delhi,Bses - Ajmeri Gate Charging Station,"New Delhi Railway Station, Ajmeri Gate Exit",1412470784,Bharat AC001,24 Hours,"https://www.google.com/maps/dir/Current+Location/28.642549,77.224482",28.642549,77.224482
Delhi,New Delhi,UTLC - Molarband Charging Station,86c Gali No14b Molarband Extension Badarpur,8045688448,AC PLUG POINT,11:59 AM - 12:00 PM,"https://www.google.com/maps/dir/Current+Location/28.489807,77.308891",28.489807,77.308891
Delhi,New Delhi,Private CPO - Anand Vihar Bus Terminal Charging Station,"Gate No. 2, Anand Vihar Bus Terminal",,Bharat DC-001,10:00 AM - 07:00 PM,"https://www.google.com/maps/dir/Current+Location/28.645842,77.314731",28.645842,77.314731
Delhi,New Delhi,Geeta Charrging Station,16/124 Geeta Colony,9212891890,Bharat AC001,Closed Now,"https://www.google.com/maps/dir/Current+Location/28.65392,77.27121",28.65392,77.27121
Delhi,New Delhi,IOCL - Jasola Charging Station,"Kos Minar Rd, Jasola",9999815600,Bharat DC-001,10:00 AM - 07:00 PM,"https://www.google.com/maps/dir/Current+Location/28.539331,77.287451",28.539331,77.287451
Delhi,New Delhi,Plug & Go - West Vinod Nagar Charging Station,"C-23 West Vinod Nagar, Narwana Road, Opp. Sawaswati Kunj Appt. I.P Extn.,Patparganj",9015490960,Bharat AC001,24 Hours,"https://www.google.com/maps/dir/Current+Location/28.624037,77.301281",28.624037,77.301281
Delhi,New Delhi,CESL - Vidyasagar Institute Of Mental Hospital Charging Station,"Vidyasagar Institute Of Mental Hospital Neuro & Allied Science, Vimhans Hospital, No. 1, Behind PGDAV College, Institutional Area, Nehru Nagar, Lajpat Nagar",7906001402,CHAdeMO,12:00 AM - 11:00 PM,"https://www.google.com/maps/dir/Current+Location/28.57008,77.250556",28.57008,77.250556
Delhi,New Delhi,Sultan Charging Station,Sultan Puri,9971940426,Bharat AC001,Closed Now,"https://www.google.com/maps/dir/V3QF%2BWCX,+Uattardhona,+Uttar+Pradesh+226010/28.704432,77.070396/@27.7482755,76.430992,7z/data=!3m1!4b1!4m8!4m7!1m5!1m1!1s0x399be2006c71e24d:0x5989857f6b7db633!2m2!1d81.0738702!2d26.889762!1m0?entry=ttu&g_ep=EgoyMDI1MDQzMC4xIKXMDSoASAFQAw%3D%3D",27.7482755,76.430992
Delhi,New Delhi,UTCL-Bhajanpur Charging Station,"C- 196 , Gali No -7 Bhajanpur",9310099958,AC PLUG POINT,24 Hours,"https://www.google.com/maps/dir/Current+Location/28.7014367,77.26033",28.7014367,77.26033
Delhi,New Delhi,UTCL - Bakhtawarpur Charging Station,Bakhtawarpur,9971482529,AC PLUG POINT,11:59 AM - 12:00 PM,"https://www.google.com/maps/dir/Current+Location/28.82658,77.17254",28.82658,77.17254
Delhi,New Delhi,UTCL-Sangam Charging Station,Sangam Vihar,8700623916,AC PLUG POINT,11:59 AM - 12:00 PM,"https://www.google.com/maps/dir/Current+Location/28.498515,77.24197",28.498515,77.24197
