State,District,Station Name,Address,Contact,Services,Final Timing,Map URL,Latitude,Longitude
Karnataka,Bagalkot,JIO BP - Hunagund Charging Station,"Nh 13, Tondihal Village, Hunagund, Taluka, Bagalkot",18008919023,CCS-II,Closed Now,"https://www.google.com/maps/dir/Current+Location/16.048605,76.062721",16.048605,76.062721
Karnataka,Bagalkot,IOCL - Shree Hucheshwar Petroleums,"Survey No 61/A, Kamatagi, Hungund Shirur",9980789512,Bharat AC001AC TYPE 2,12:00 AM - 11:59 PM,"https://www.google.com/maps/dir/Current+Location/16.106978,75.863927",16.106978,75.863927
Karnataka,Bagalkot,Jio Bp Charging Station,"Reliance Petrol Pump,X3QX+GC7,Reliance Petroleum,Herur Karnataka",18008919023,CCS-II,Closed Now,"https://www.google.com/maps/dir/Current+Location/15.991045,76.117825",15.991045,76.117825
Karnataka,Bagalkot,Statiq - MR Residency Charging Station,"Infront Of The Building, Street No 323, Mehboobsaab L Sarakawas, Ilkal Road, Hungund, Begalkot, Hungund",9482641333,,12:00 AM - 11:59 PM,"https://www.google.com/maps/dir/Current+Location/16.052901,76.066068",16.052901,76.066068
Karnataka,Bidar,IOCL - Appu Charging Station,Sy.No.459/2 Kamthana Village Bidar Taluk Bidar,8123207266,Bharat AC001,12:00 AM - 11:59 PM,"https://www.google.com/maps/dir/Current+Location/17.842026,77.446074",17.842026,77.446074
Karnataka,Bidar,iocl - Horizon Automotives Charging Station,Sy.No.209/1 Sastapur Bangla To Atlapur,9008499999,Bharat AC001AC TYPE 2,12:00 AM - 11:59 PM,"https://www.google.com/maps/dir/Current+Location/17.828087,76.913983",17.828087,76.913983
Karnataka,Bidar,TATA Power - SVS Tyres Charging Station,"NH 65 , KIADB Industrial Area, Near Fire Station, NH 65 Sastapur, Bangla Basawakalyan",8527000290,CCS-II,12:00 AM - 11:59 PM,"https://www.google.com/maps/dir/Current+Location/17.872129,76.95146",17.872129,76.95146
Karnataka,Bidar,IOCL - Prabhu Charging Station,"Sy No 3/5, Holasamudra Village Sangam, Kamalnagar Road, Kamalnagar",18002333555,Bharat AC001AC TYPE 2,12:00 AM - 11:59 PM,"https://www.google.com/maps/dir/Current+Location/16.42507,76.948645",16.42507,76.948645
Karnataka,Bidar,IOCL - Sri Lakshmi Narasimha Charging Station,"Survey No 14/33, Kaudiyal Basavakalyan Bazar",9482547765,Bharat AC001AC TYPE 2,12:00 AM - 11:59 PM,"https://www.google.com/maps/dir/Current+Location/17.8190088,76.954452",17.8190088,76.954452
Karnataka,Bidar,IOCL - Girne Charging Station,Sy.No.62/18 Boral Village Santhapur - Aurad Road,9900727200,Bharat AC001AC TYPE 2,06:00 AM - 10:00 PM,"https://www.google.com/maps/dir/Current+Location/18.205622,77.42338",18.205622,77.42338
Karnataka,Bidar,SVS Tyres Sastapur Charging Station,"RWCQ+MH4, Sasthapur Bangla, Karnataka 585327, India",9741397500,CCS-II,Closed Now,"https://www.google.com/maps/dir/Current+Location/17.82176,76.938867",17.82176,76.938867
Karnataka,Bidar,IOCL - M/S MANOHAR RAO NAIK Charging Station,"988F F8R, Kherda B",7829330410,16 Amp,06:00 AM - 10:00 PM,"https://www.google.com/maps/dir/Lucknow,+Uttar+Pradesh/17.908205,77.480813/@22.29133,73.9186543,6z/data=!3m1!4b1!4m8!4m7!1m5!1m1!1s0x399bfd991f32b16b:0x93ccba8909978be7!2m2!1d80.946166!2d26.8466937!1m0?entry=ttu&g_ep=EgoyMDI1MDQzMC4xIKXMDSoASAFQAw%3D%3D",22.29133,73.9186543
Karnataka,Bidar,IOCL - Khoba Charging Station,Nagur Babji,7829330410,16 Amp,06:00 AM - 10:00 PM,"https://www.google.com/maps/dir/Current+Location/18.148654,77.394914",18.148654,77.394914
Karnataka,Bidar,Charger-M/S MANOHAR RAO NAIK IOCL PETROLEUMS 1,"988F F8R, Kherda B",,16 Amp,06:00 AM - 10:00 PM,"https://www.google.com/maps/dir/Lucknow,+Uttar+Pradesh/17.908205,77.480813/@22.29133,73.9186543,6z/data=!3m1!4b1!4m8!4m7!1m5!1m1!1s0x399bfd991f32b16b:0x93ccba8909978be7!2m2!1d80.946166!2d26.8466937!1m0?entry=ttu&g_ep=EgoyMDI1MDQzMC4xIKXMDSoASAFQAw%3D%3D",22.29133,73.9186543
Karnataka,Bidar,IOCL - Khoba Charging Station,Nagur Babji,7829330410,16 Amp,06:00 AM - 10:00 PM,"https://www.google.com/maps/dir/Current+Location/18.150089,77.381869",18.150089,77.381869
Karnataka,Bidar,IOCL - SRI SAIDEEPE KAMBA Charging Station,"1, Dudhukanal",7829330410,16 Amp,06:00 AM - 10:00 PM,"https://www.google.com/maps/dir/Current+Location/18.284405,77.397668",18.284405,77.397668
Karnataka,Bidar,IOCL - Dr B R Ambedkar Charging Station,Halli,7829330410,16 Amp,06:00 AM - 10:00 PM,"https://www.google.com/maps/dir/Current+Location/17.842027,76.850216",17.842027,76.850216
Karnataka,Bidar,IOCL - Dr B R Ambedkar Charging Station,Halli,7829330410,16 Amp,06:00 AM - 10:00 PM,"https://www.google.com/maps/dir/Current+Location/17.84975,76.866789",17.84975,76.866789
Karnataka,Bidar,IOCL - SRI SAIDEEP EKAMBA Charging Station,"1, Dudhukanal",7829330410,16 Amp,06:00 AM - 10:00 PM,"https://www.google.com/maps/dir/Current+Location/18.281783,77.36981",18.281783,77.36981
Karnataka,Bidar,HPCL - Basawaraj Patil Charging Station,"Homnabad Rural, Humnabad",2222863900,AC TYPE 2,12:00 AM - 11:59 PM,"https://www.google.com/maps/dir/Current+Location/17.765155,77.151992",17.765155,77.151992
Karnataka,Bidar,HPCL - N.K. Sindol Charging Station,"NH 65, Markunda",2222863900,AC TYPE 2,12:00 AM - 11:59 PM,"https://www.google.com/maps/dir/Current+Location/17.697727,77.433247",17.697727,77.433247
Karnataka,Bidar,Ather-Lahoti Charging Station,"Partab Nagar, Naubad Road",7676600900,,10:00 AM - 09:00 PM,"https://www.google.com/maps/dir/Current+Location/17.931448,77.483418",17.931448,77.483418
Karnataka,Bidar,Ather-Lahoti Charging Station,"Partab Nagar, Naubad Road",7676600900,,11:59 PM - 12:00 AM,"https://www.google.com/maps/dir/Current+Location/17.912665,77.409604",17.912665,77.409604
Karnataka,Chamarajanagar,IOCl - Cnb Charging Station,"No 71/3, Bendravadi Attikane",9480326843,Bharat AC001AC TYPE 2,12:00 AM - 11:59 PM,"https://www.google.com/maps/dir/Current+Location/12.004364,76.832831",12.004364,76.832831
Karnataka,Chamarajanagar,Ather-Safe Fence Industries Charging Station,"Near HP Bunk, Sathyamangala Road, Somvarpet",7676600900,,10:00 AM - 09:00 PM,"https://www.google.com/maps/dir/Current+Location/11.904268,76.947174",11.904268,76.947174
Karnataka,Chamarajanagar,Ather-Star Charging Station,"Oppsite Shanti Theatre, RMC Rd, Kollegala",7676600900,,10:00 AM - 09:00 PM,"https://www.google.com/maps/dir/Current+Location/12.153643,77.104869",12.153643,77.104869
Karnataka,Chamarajanagar,Statiq - MC Resort Charging Station,"Bandipur National Park, Bangalore-Ooty Road, Melukamanahally, Gundlupete",8861933044,Bharat AC001Bharat DC-001,11:00 AM - 12:00 PM,"https://www.google.com/maps/dir/Current+Location/11.69667188,76.635711",11.69667188,76.635711
Karnataka,Chikkaballapur,IOCL - K.c. Charging Station,Khatha No.1550/158159 Ammani Kandaverakere Kasaba Hobli,9844363174,Bharat AC001AC TYPE 2,12:00 AM - 11:59 PM,"https://www.google.com/maps/dir/Current+Location/13.0532742,77.649733",13.0532742,77.649733
Karnataka,Chikkaballapur,Kazam - KEB Charging Station,KEB Colony,9343250222,Bharat AC001,12:00 AM - 11:59 PM,"https://www.google.com/maps/dir/Lucknow,+Uttar+Pradesh/3.4380357,77.734002/@14.8924004,68.6716199,5z/data=!3m1!4b1!4m8!4m7!1m5!1m1!1s0x399bfe8c8d903723:0xdc4a0d1e121bf0e5!2m2!1d80.9462214!2d26.8467953!1m0?entry=ttu&g_ep=EgoyMDI1MDQzMC4xIKXMDSoASAFQAw%3D%3D",14.8924004,68.6716199
Karnataka,Chikkaballapur,IOCL - SREE LAKSHMI MARUTHI Charging Station,Gauribidanur,7829330410,16 Amp,06:00 AM - 10:00 PM,"https://www.google.com/maps/dir/Current+Location/13.613341,77.516436",13.613341,77.516436
Karnataka,Chikkaballapur,BESCOM - CITY SUB DIVISION OFFICE Charging Station,"CPMJ FVM, BB Rd",9483191212,Bharat AC001,12:00 AM - 11:59 PM,"https://www.google.com/maps/dir/Current+Location/13.433998,77.732226",13.433998,77.732226
Karnataka,Chikkaballapur,BESCOM - Nandi Hills Training Centre Charging Station,"Bus Stop, Nandi Hills Main Rd, Nandi Hills",9483191212,Bharat AC001,12:00 AM - 11:59 PM,"https://www.google.com/maps/dir/Current+Location/13.371959,77.679877",13.371959,77.679877
Karnataka,Chitradurga,Sai Krishna Charging Station,Sai Krishna Fuels,,Bharat DC-001,Closed Now,"https://www.google.com/maps/dir/Current+Location/13.89463,76.598217",13.89463,76.598217
Karnataka,Chitradurga,Tata Power - Dakshin Motors Charging Station,"NH-4 , Pattrehalli Adivala Village, Hiriyur",,CCS-II,12:00 AM - 11:59 PM,"https://www.google.com/maps/dir/Current+Location/13.948458,76.613973",13.948458,76.613973
Karnataka,Chitradurga,IOCL - Spoorthi Enterprises Charging Station,"Survey No 60/6, Singapura, Annehal",9611123851,Bharat AC001AC TYPE 2,12:00 AM - 11:59 PM,"https://www.google.com/maps/dir/Lucknow,+Uttar+Pradesh/4.1473322,76.4521514/@15.2417883,68.0314063,5z/data=!3m1!4b1!4m8!4m7!1m5!1m1!1s0x399bfe8c8d903723:0xdc4a0d1e121bf0e5!2m2!1d80.9462214!2d26.8467953!1m0?entry=ttu&g_ep=EgoyMDI1MDQzMC4xIKXMDSoASAFQAw%3D%3D",15.2417883,68.0314063
Karnataka,Chitradurga,IOCL - Taha Charging Station,"Survey No 6/2 & 6/3, Vanivilasapura Ganayakanahally",8496883333,Bharat AC001AC TYPE 2,12:00 AM - 11:59 PM,"https://www.google.com/maps/dir/Current+Location/13.0243993,77.604905",13.0243993,77.604905
Karnataka,Chitradurga,IOCL - Sujatha Charging Station,"Sy No 15/6, Hiriyur Bangalore Road Adivala",9742671117,Bharat AC001AC TYPE 2,12:00 AM - 11:59 PM,"https://www.google.com/maps/dir/Current+Location/16.172199,77.334688",16.172199,77.334688
Karnataka,Chitradurga,Srirampura Charging Station,"Vijaya Petrol Bunk,Indianoil Dealers Sy.No.16/2C Srirampura Villag Hosadurga Tq Chitradurga",,Bharat AC001Type 2,Closed Now,"https://www.google.com/maps/dir/Current+Location/13.8214407,76.112571",13.8214407,76.112571
Karnataka,Chitradurga,Hotel Kedar Mai Mangalam Hall Umbraj ( Private Charger ),"Madras Bombay Trunk Rd, Javagondnahalli",9822376249,CCS-II,10:00 AM - 07:00 PM,"https://www.google.com/maps/dir/Current+Location/13.839628,76.740825",13.839628,76.740825
Karnataka,Chitradurga,Hotel Mysore Cafe-Zeon ( Private Charger ),"Hotel Mysore Cafe NH-4,Beside S Nijalingappa Memorial Seebara",9789616161,CCS-II,24 Hours,"https://www.google.com/maps/dir/Current+Location/14.258162,76.354121",14.258162,76.354121
Karnataka,Chitradurga,IOCL - Chowdamma Charging Station,Bidarakere,7829330410,16 Amp,06:00 AM - 10:00 PM,"https://www.google.com/maps/dir/Current+Location/14.059386,76.721251",14.059386,76.721251
Karnataka,Chitradurga,IOCL - RAMALINGESHWARA SWAMY Charging Station,Ramagiri,7829330410,16 Amp,06:00 AM - 10:00 PM,"https://www.google.com/maps/dir/Current+Location/13.954511,76.123678",13.954511,76.123678
Karnataka,Chitradurga,IOCL - RAMALINGESHWARA SWAMY Charging Station,Ramagiri,7829330410,16 Amp,06:00 AM - 10:00 PM,"https://www.google.com/maps/dir/Current+Location/13.960769,76.119832",13.960769,76.119832
Karnataka,Chitradurga,BESCOM - Premises Charging Station,"Ambedkar Nagar, Challakere",8022873333,Bharat AC001,12:00 AM - 11:59 PM,"https://www.google.com/maps/dir/Current+Location/14.343654,76.646484",14.343654,76.646484
Karnataka,Chitradurga,BESCOM - Chitradurga Division Charging Station,"KEB QUARTERS, St Joseph Convent Rd, Maniyur",8194223125,Bharat AC001,12:00 AM - 11:59 PM,"https://www.google.com/maps/dir/Current+Location/14.225965,76.40721",14.225965,76.40721
Karnataka,Chitradurga,BESCOM Molakalmuru SDO - Charging Station,"Molakalmuru, Karnataka",,Bharat AC001,12:00 AM - 11:59 PM,"https://www.google.com/maps/dir/Current+Location/14.718931,76.741796",14.718931,76.741796
Karnataka,Chitradurga,BESCOM - HOLALKERE Charging Station,"25RG PHV, Holalkere",9483191212,Bharat AC001,12:00 AM - 11:59 PM,"https://www.google.com/maps/dir/Current+Location/14.041917,76.176401",14.041917,76.176401
Karnataka,Chitradurga,BESCOM - Hosadurga Charging Station,"Q7WM V73, Hosadurga",9483191212,Bharat AC001,12:00 AM - 11:59 PM,"https://www.google.com/maps/dir/Current+Location/13.797382,76.283177",13.797382,76.283177
Karnataka,Chitradurga,BESCOM - Hiriyur Charging Station,"XJ67 69Q, Bellary-Hiriyur Rd, Hiriyur",9483191212,Bharat AC001,12:00 AM - 11:59 PM,"https://www.google.com/maps/dir/Current+Location/13.960611,76.61349",13.960611,76.61349
Karnataka,Chitradurga,BESCOM - SRIRAMPURA Charging Station,"JC99 MVV, Budhihal",9483191212,Bharat AC001,12:00 AM - 11:59 PM,"https://www.google.com/maps/dir/Current+Location/13.619356,76.419592",13.619356,76.419592
Karnataka,Chitradurga,Ather-Chitradurga Charging Station,"Sai Ganesh Towers,BL Gowda Layout, Thuruvanor Road",7676600900,,10:00 AM - 09:00 PM,"https://www.google.com/maps/dir/Current+Location/14.2311,76.409643",14.2311,76.409643
Karnataka,Chitradurga,Ather-Shruti Charging Station,"Shanthamma Chanapati, W/O Prakesh Reddy, Thuruvanor Road, BL Gowda Layout",7676600900,,11:59 PM - 12:00 PM,"https://www.google.com/maps/dir/Current+Location/14.231087,76.409552",14.231087,76.409552
Karnataka,Dakshina Kannada,IOCL - Jai Shankar Charging Station,"Ground Floor, Boliyar, Mangalore Balepuni Near Boliyar Masjid",9980254647,Bharat AC001AC TYPE 2,12:00 AM - 11:59 PM,"https://www.google.com/maps/dir/Current+Location/12.828191,74.9625",12.828191,74.9625
Karnataka,Dakshina Kannada,IOCL - Kadu Charging Station,Village Adyanadka Post Bantwal Taluk D.K.,9483458574,Bharat AC001AC TYPE 2,12:00 AM - 11:59 PM,"https://www.google.com/maps/dir/Current+Location/12.717199,75.121178",12.717199,75.121178
Karnataka,Dakshina Kannada,Panchalingeshwara Charging Station,"Shri Panchalingeshwara Enterprises,Indianoil Kisan Seva Kendra Dealer Parlikaje Ivaranadu Post & Village Sullia Talk",,Bharat AC001Type 2,Closed Now,"https://www.google.com/maps/dir/Current+Location/14.3413748,74.884958",14.3413748,74.884958
Karnataka,Dakshina Kannada,IOCL - Mahamaya Enterprises Charging Station,Krishna Nagara Panja Post Ivathoklu Vg Sullia Tk Dk,9483656481,Bharat AC001AC TYPE 2,10:00 AM - 07:00 PM,"https://www.google.com/maps/dir/Current+Location/12.67627,75.467371",12.67627,75.467371
Karnataka,Dakshina Kannada,IOCL - KADU Charging Station,Adyanadka Amai,7829330410,16 Amp,06:00 AM - 10:00 PM,"https://www.google.com/maps/dir/Current+Location/12.698984,75.104996",12.698984,75.104996
Karnataka,Dakshina Kannada,Charger - PS Aithal Charging Station,"No. 6-2-41, 8th Cross Rd, Gandhinagar, Mangaluru",7829330410,16 Amp,10:00 AM - 07:00 PM,"https://www.google.com/maps/dir/Current+Location/12.888169,74.834373",12.888169,74.834373
Karnataka,Dakshina Kannada,Indeanta EV - Charging Station,"K S Hegde Hospital Deralkatte, Belma Village, Ullal",7829330410,16 Amp,10:00 AM - 07:00 PM,"https://www.google.com/maps/dir/Current+Location/12.812563,74.88196",12.812563,74.88196
Karnataka,Dakshina Kannada,"Tata Power - Ginger Hotel, Near Kottara Chowki Junction (Private - Charger)",Ginger Hotel Mangalore Near Kottara Chowki Junction,9223581898,CCS-IIAC TYPE 2,12:00 AM - 11:59 PM,"https://www.google.com/maps/dir/Current+Location/12.9090266,74.835969",12.9090266,74.835969
Karnataka,Dakshina Kannada,HPCL - Sri Rajarajeshwari Petro Charging Station,"3-105, Main Road, Kulur",,AC TYPE 2,10:00 AM - 07:00 PM,"https://www.google.com/maps/dir/Current+Location/12.918188,74.837901",12.918188,74.837901
Karnataka,Dakshina Kannada,Statiq - Mangalore University First grade College Charging Station,"RV99 VG3, Mangalore - Thokkottu - Konaje Univarsity Rd, Munnuru, Permanur, Ullal",8070743743,AC TYPE 2,12:00 AM - 11:59 PM,"https://www.google.com/maps/dir/Current+Location/12.819653,74.868799",12.819653,74.868799
Karnataka,Dakshina Kannada,Ather-Hotel Disha Food Corner (Private Charger),"Arippdy Matt Complex, College Road, Ujire, Belthangady Taluk",7676600900,,10:00 AM - 09:00 PM,"https://www.google.com/maps/dir/Current+Location/12.992551,75.330754",12.992551,75.330754
Karnataka,Dakshina Kannada,Ather-B C Road Charging Station,"Ground Floor, No 14-212 2, Property 1 D17-5235, M R Complex, Mangalore - Bangalore Road, BC Road, Bantval",7676600900,,10:00 AM - 09:00 PM,"https://www.google.com/maps/dir/Current+Location/12.879715,75.01985",12.879715,75.01985
Karnataka,Dakshina Kannada,Ather-Mandeep Marbles Charging Station,"No 3 166 12, NH 66, Kulai",7676600900,,10:00 AM - 09:00 PM,"https://www.google.com/maps/dir/Current+Location/12.965552,74.805895",12.965552,74.805895
Karnataka,Dakshina Kannada,Statiq - Mescom Division Office Bantwal Charging Station,"B.C Road, Bantwal",8070743743,Bharat AC001Bharat DC-001,09:00 AM - 05:00 PM,"https://www.google.com/maps/dir/Current+Location/12.87994,75.0323",12.87994,75.0323
Karnataka,Dharwad,IOCL - Naik Charging Station,"Ground Floor, NH 63, Kalaghatagi, Ankola Road Mukkal",9448748977,Bharat AC001AC TYPE 2,12:00 AM - 11:59 PM,"https://www.google.com/maps/dir/Current+Location/15.179762,74.969532",15.179762,74.969532
Karnataka,Dharwad,MG Motors Tata Power Charging Station,"Opp NGEF Rayapura Darwad, PB Rd, Rayapur, Hubli, Karnataka",9606291404,CCS-IICHAdeMO,Closed Now,"https://www.google.com/maps/dir/Current+Location/15.408175,75.0639",15.408175,75.0639
Karnataka,Dharwad,Tata Power - Salimath Engineers Charging Station,Plot No 19 Salimath Building Airport Road Padama Housing Society,9742211172,CCS-II,12:00 AM - 11:59 PM,"https://www.google.com/maps/dir/Current+Location/15.355094,75.089094",15.355094,75.089094
Karnataka,Dharwad,Ather-V J House Charging Station,"Shop No 1, VJ House, Near KalaBhavan, KCD Road, Jubliee Circle",7676600900,,10:00 AM - 09:00 PM,"https://www.google.com/maps/dir/Current+Location/15.45907,75.007545",15.45907,75.007545
Karnataka,Dharwad,Ather-The Doorway Cafe Charging Station,"Dharwad Arts And Commerce PU College, 31/2/1B/MF/31/7B2/MF, Opposite Aditya Arcade, PB Road, Maratha Colony",7676600900,,10:00 AM - 09:00 PM,"https://www.google.com/maps/dir/Current+Location/15.461817,75.005509",15.461817,75.005509
Karnataka,Dharwad,Ather-Ankita Residency Charging Station,"CB Road, Opp Old IB, Pune Bangalore, SH1",7676600900,,10:00 AM - 09:00 PM,"https://www.google.com/maps/dir/Current+Location/15.46346,75.00255",15.46346,75.00255
Karnataka,Dharwad,Ather-Hotel Dwarawata (Private Charger),"No 2,3,And 4, CTS No 37/A/1A1, Opp KC Park, Post Office Ward No 13",7676600900,,10:00 AM - 09:00 PM,"https://www.google.com/maps/dir/Current+Location/15.487504,74.975566",15.487504,74.975566
Karnataka,Dharwad,Ather-Mammigatti Charging Station,"Garag Cross, Mammigatti Village",7676600900,,10:00 AM - 09:00 PM,"https://www.google.com/maps/dir/Current+Location/15.512777,74.941682",15.512777,74.941682
Karnataka,Dharwad,Ather-Salimath Engineers Charging Station,"Plot No 19, Salimath Biulding Airport Road, Padma Housing Society, Hubli",7676600900,,10:00 AM - 09:00 PM,"https://www.google.com/maps/dir/Current+Location/15.355426,75.089158",15.355426,75.089158
Karnataka,Dharwad,Ather-Leela Square Charging Station,"Leela Squa, Vidyanagar, Opposite KIMS Hubballi, Hubballi",7676600900,,10:00 AM - 09:00 PM,"https://www.google.com/maps/dir/Current+Location/15.361774,75.126201",15.361774,75.126201
Karnataka,Dharwad,Ather-Physics Motors Technology Charging Station,"C-12, 7th Cross, KSSIDC Industrial Estate",7676600900,,10:00 AM - 09:00 PM,"https://www.google.com/maps/dir/Current+Location/15.371359,75.049864",15.371359,75.049864
Karnataka,Gadag,IOCL - Sri Male Mahadeswaraswamy Charging Station,"RS No 233/C, Gadag Bazar, Mulgund Rd Lakshmanasa Ngr",9972006335,Bharat AC001AC TYPE 2,12:00 AM - 11:59 PM,"https://www.google.com/maps/dir/Current+Location/12.261017,77.015994",12.261017,77.015994
Karnataka,Gadag,Ather-Gadag Charging Station,"Bellad Hyundai, Hubli Road, Gadag-Betageri",7676600900,,10:00 AM - 09:00 PM,"https://www.google.com/maps/dir/Current+Location/15.421345,75.607121",15.421345,75.607121
Karnataka,Hassan,Tata Power - Kalinga Tavern Residency Hatna Charging Station,"Bandadka, Bengaluru Rd",18008332233,CCS-IICHAdeMO,09:00 AM - 09:00 PM,"https://www.google.com/maps/dir/Current+Location/12.908596,76.42156",12.908596,76.42156
Karnataka,Hassan,Tata Power - Automatrix Hassan Bangalore Mangalore Highway Charging Station,"Bangalore - Mangalore Hwy, NH 8, Thanniruhalla",9742211172,CCS-II,12:00 AM - 11:59 PM,"https://www.google.com/maps/dir/Current+Location/12.9952076,76.079467",12.9952076,76.079467
Karnataka,Hassan,Zeon - Hotel Sky Birds (Private - Charger),Hotel Sky Birds,9789616161,CCS-IIDCParking Slot,10:00 AM - 07:00 PM,"https://www.google.com/maps/dir/Current+Location/13.023995,76.099129",13.023995,76.099129
Karnataka,Hassan,IOCL - Hoysala Charging Station,Gorur Road Anthariksha Nagar Opposite Cremation Ground,8660273402,Bharat AC001,12:00 AM - 11:59 PM,"https://www.google.com/maps/dir/Current+Location/12.990735,76.093654",12.990735,76.093654
Karnataka,Hassan,IOCL - Terdal Charging Station,"Ground Floor, Bikkodu Road Alur",9916890359,Bharat AC001AC TYPE 2,12:00 AM - 11:59 PM,"https://www.google.com/maps/dir/Current+Location/13.045984,75.807571",13.045984,75.807571
Karnataka,Hassan,Shrikanteshwara Charging Station,"Shri Shrikanteshwara Fuels,Indianoil Dealer Krishnapura Villagenear K.M.F H.N.Pura Taluk Hassan",,Bharat AC001Type 2,Closed Now,"https://www.google.com/maps/dir/Current+Location/12.779182,76.215506",12.779182,76.215506
Karnataka,Hassan,Muddanahalli Charging Station,"Sri Lakshmi Narasimha Fuel Station,Indianoil Kisan Seva Kendra Dealer Muddanahalli Villagedandigana Hobli C.R.Patna Tk Hassan",,Bharat AC001Type 2,Closed Now,"https://www.google.com/maps/dir/Current+Location/12.9761635,76.291971",12.9761635,76.291971
Karnataka,Hassan,IOCL - MM SERVICE CENTER Charging Station,Baladare,7829330410,16 Amp,06:00 AM - 10:00 PM,"https://www.google.com/maps/dir/Current+Location/12.961509,76.329584",12.961509,76.329584
Karnataka,Hassan,IOCl - SHRI SHRIKANTESHWARA Charging Station,Dakshinanala,7829330410,16 Amp,06:00 AM - 10:00 PM,"https://www.google.com/maps/dir/Current+Location/12.792043,76.217611",12.792043,76.217611
Karnataka,Hassan,Ather-Hassan Charging Station,"No 746, Kruthik Arcade, Siddeshwara Rice Mill Compound, Santhepet, BM Road",7676600900,,10:00 AM - 09:00 PM,"https://www.google.com/maps/dir/Current+Location/12.99669,76.089557",12.99669,76.089557
Karnataka,Hassan,Ather-Trupthi Comforts Charging Station,"NH75, Bangalore - Mangalore Bypass, Boovanahalli",7676600900,,10:00 AM - 09:00 PM,"https://www.google.com/maps/dir/Current+Location/13.001121,76.142983",13.001121,76.142983
Karnataka,Hassan,Ather-Channarayapatna Charging Station,"No 149/3, Opp Reliance Petrol Bunk, SH17, Channarayapatna",7676600900,,10:00 AM - 09:00 PM,"https://www.google.com/maps/dir/Current+Location/12.918961,76.376062",12.918961,76.376062
Karnataka,Hassan,Ather-Hotel Samrat Grand (Private Charger),"B M Road Anemahal, Sakleshpura",7676600900,,10:00 AM - 09:00 PM,"https://www.google.com/maps/dir/Current+Location/12.92898,75.764919",12.92898,75.764919
Karnataka,Haveri,Charge Zone- Shiggaon,"N H 4 Highway Shiggaon, Taluk, Munavalli, Karnataka",,CCS-II,Closed Now,"https://www.google.com/maps/dir/Current+Location/14.945068,75.250059",14.945068,75.250059
Karnataka,Haveri,HPCL - Shree shivaparvati Charging Station,"Pune - Bengaluru Hwy, Kadamanahalli",2222863900,AC TYPE 2,12:00 AM - 11:59 PM,"https://www.google.com/maps/dir/Current+Location/14.747994,75.453129",14.747994,75.453129
Karnataka,Haveri,Ather-Haveri Charging Station,"Survey No-84/A, Opp RTO Office, P B Road",7676600900,,10:00 AM - 09:00 PM,"https://www.google.com/maps/dir/Current+Location/14.819075,75.375839",14.819075,75.375839
Karnataka,Haveri,Ather-Bellad Charging Station,"Survey No-84/A, Opp RTO Office, P B Road",7676600900,,11:59 PM - 12:00 AM,"https://www.google.com/maps/dir/Current+Location/14.817454,75.377898",14.817454,75.377898
Karnataka,Kodagu,Tata Power - Ama Stays Glenlorna Bungalow Hudikeri(Private Charger),"Glenlorna Bungalow, Hudikeri, Tata Coffee Ltd., Hudikeri Post, Hudikeri, Coorg",9223581898,AC TYPE 2,12:00 AM - 11:59 PM,"https://www.google.com/maps/dir/Current+Location/12.428629,75.732798",12.428629,75.732798
Karnataka,Kodagu,Tata Power - Pollibetta Bungalow (Private Charger),"Pollibetta Bungalow, Pollibetta, Pollibetta Estate, Tata Coffee Ltd, Pollibetta",,AC TYPE 2,12:00 AM - 11:59 PM,"https://www.google.com/maps/dir/Current+Location/12.231132,75.937025",12.231132,75.937025
Karnataka,Kodagu,Tata Power - Cottage Woshully Pollibetta(Private Charger),"Thaneerhulla Division,Woshully Estate, Tata Coffee Ltd",,AC TYPE 2,10:00 AM - 07:00 PM,"https://www.google.com/maps/dir/Current+Location/12.227408,75.946256",12.227408,75.946256
Karnataka,Kodagu,Sri Shirdi Charging Station,"Sri Shirdi Sai Traders,Sy No. 64/1 Mulusoge V.Kushalnagar H. Somwarpet Tq. Kodagu",,Bharat AC001Type 2,Closed Now,"https://www.google.com/maps/dir/Current+Location/12.4572584,75.960504",12.4572584,75.960504
Karnataka,Kodagu,Kazam - Mekeri Charging Station,Mekeri 571201,9483533959,Bharat AC001,12:00 AM - 11:59 PM,"https://www.google.com/maps/dir/Current+Location/12.389473,75.748228",12.389473,75.748228
Karnataka,Kodagu,"Hotel Amritara, Ambatty Greens Resort ( Private Charger )","117/3, Ambatty Greens Resorts, Bittangala, Ambatty Village",8527000290,CCS-IIAC TYPE 2,12:00 AM - 11:59 PM,"https://www.google.com/maps/dir/Current+Location/12.182335,75.828021",12.182335,75.828021
Karnataka,Kodagu,Tata Power - Yemmigoondi Cottage (Private Charger),"Yemmigoondi Cottage, Mekur Hosakeri",9223581898,AC TYPE 2,12:00 AM - 11:59 PM,"https://www.google.com/maps/dir/Current+Location/12.242801,75.90522",12.242801,75.90522
Karnataka,Kodagu,"Tata Power - Hotel New Church Side, Stuart Hill ( Private - Charger )","Madikeri Napoklu Rd, Stuart Hill, Madikeri",9742211172,CCS-II,12:00 AM - 11:59 PM,"https://www.google.com/maps/dir/Current+Location/12.418792,75.74059",12.418792,75.74059
Karnataka,Kodagu,Tata Power - Taj Madikeri Resort & Spa (Private - Charger),"1st Monnangeri Galibeedu, Post, Madikeri",9223581898,CCS-IIAC TYPE 2,12:00 AM - 11:59 PM,"https://www.google.com/maps/dir/Current+Location/12.445058,75.685914",12.445058,75.685914
Karnataka,Kodagu,IOCL - Ohm Aadiparashakthi Charging Station,"Ground Floor, Suntikoppa Andagove",9448720376,16 Amp,06:00 AM - 10:00 PM,"https://www.google.com/maps/dir/Current+Location/12.448284,75.820067",12.448284,75.820067
Karnataka,Kodagu,IOCL - SRIVATHSA Charging Station,"Dubare Junction, Siddapur, Main Rd, Nanjarayapatna",8002333555,16 Amp,06:00 AM - 10:00 PM,"https://www.google.com/maps/dir/Current+Location/12.376498,75.897467",12.376498,75.897467
Karnataka,Kodagu,Tata Power - Ama Stays Cottabetta Bungalow Pollibetta (Private - Charger),"Cottabetta Bungalow, Pollibetta, Tata Coffee Ltd, Cottabetta Estate, Pollibetta",9223581898,AC TYPE 2,12:00 AM - 11:59 PM,"https://www.google.com/maps/dir/Current+Location/12.2234206,75.93898",12.2234206,75.93898
Karnataka,Kodagu,Tata Power - Surgi Bungalow (Private - Charger),"Surgi Bungalow, Tata Coffee Ltd., Polibetta, Coorg",9223581898,AC TYPE 2,12:00 AM - 11:59 PM,"https://www.google.com/maps/dir/Current+Location/12.2334294,75.920751",12.2334294,75.920751
Karnataka,Kodagu,Tata Power - Thaneerhulla Bungalow Pollibetta (Private - Charger),"Tata Coffee Ltd, Taneerhulla Estate, Pollibetta",9223581898,AC TYPE 2,12:00 AM - 11:59 PM,"https://www.google.com/maps/dir/Current+Location/12.2460678,75.947239",12.2460678,75.947239
Karnataka,Kodagu,Tata Power -Woshully Estate (Private - Charger),"Taneerhulla Division, Woshully Estate, Tata Coffee Ltd",9223581898,AC TYPE 2,12:00 AM - 11:59 PM,"https://www.google.com/maps/dir/Current+Location/12.246645,75.9476972",12.246645,75.9476972
Karnataka,Kodagu,"Hotel Amritara, Ambatty Greens Resort (Private -Charger)","117/3 Ambatty Greens Resort Bitangalla, Near Coorg Golf Links Virajpet",8527000290,CCS-IICHAdeMO,10:00 AM - 07:00 PM,"https://www.google.com/maps/dir/Current+Location/12.182084,75.828122",12.182084,75.828122
Karnataka,Kodagu,IOCL - SRIVATHSA Charging Station,"Siddapur Main Rd, Nanjarayapatna",7829330410,16 Amp,06:00 AM - 10:00 PM,"https://www.google.com/maps/dir/Current+Location/12.37571,75.871243",12.37571,75.871243
Karnataka,Kodagu,Statiq - Club Mahindra Virajpet Resort (Private - Charger),"Palangala Village, Karada Post, Virajpet",8070743743,AC TYPE 2,12:00 AM - 11:59 PM,"https://www.google.com/maps/dir/Current+Location/12.19802,75.709732",12.19802,75.709732
Karnataka,Kolar,IOCL - Super Charging Station,"Khatha No 2410/2213, Malur Vokkaleri",9449204848,Bharat AC001AC TYPE 2,12:00 AM - 11:59 PM,"https://www.google.com/maps/dir/Current+Location/13.070004,78.03707",13.070004,78.03707
Karnataka,Kolar,Kazam - Masti Charging Station,Masti,9945776935,Bharat AC001,12:00 AM - 11:59 PM,"https://www.google.com/maps/dir/Current+Location/13.135949,78.129099",13.135949,78.129099
Karnataka,Kolar,IOCL - Maruthi Charging Station,"Karanje Extension ,Malur Town",9448003745,Bharat AC001,12:00 AM - 11:59 PM,"https://www.google.com/maps/dir/Current+Location/13.138445,78.128222",13.138445,78.128222
Karnataka,Kolar,Esha Charging Station,"Esha Fuel Zone,Sy No 279/2 & 292/5Indianoil Petro Bellur Villagenarsapur Hobli Kolar Taluka",,Bharat AC001Type 2,Closed Now,"https://www.google.com/maps/dir/Current+Location/13.1313388,77.989211",13.1313388,77.989211
Karnataka,Kolar,IOCL - Vasavi Charging Station,"Survey No 143/3 & 144/1, Santhekalahalli Chintamani",9902933013,Bharat AC001AC TYPE 2,12:00 AM - 11:59 PM,"https://www.google.com/maps/dir/Current+Location/13.136552,78.129267",13.136552,78.129267
Karnataka,Kolar,IOCL - Sri Kapila Charging Station,"Survey No 28/2A, Lakkuru, Chudagondanahalli Chikka Tirupathi",8861188074,Bharat AC001AC TYPE 2,12:00 AM - 11:59 PM,"https://www.google.com/maps/dir/Current+Location/12.9514318,77.49425",12.9514318,77.49425
Karnataka,Kolar,IOCL - Vidura Charging Station,"Survey No 7/5, Old No 7/4 & 7, Chikkakurugodu, Kasaba Gauribidanur",9845504349,Bharat AC001AC TYPE 2,12:00 AM - 11:59 PM,"https://www.google.com/maps/dir/Current+Location/13.658201,77.511103",13.658201,77.511103
Karnataka,Kolar,IOCL - Vijendra Charging Station,"Survey No 86, Khatha No 633, Kyasamballi Ashok Nagar",9448377176,Bharat AC001AC TYPE 2,12:00 AM - 11:59 PM,"https://www.google.com/maps/dir/Current+Location/12.9553595,78.344066",12.9553595,78.344066
Karnataka,Kolar,IOCL - Anand Charging Station,Sy.No.14/3 Madigarahalli Village,9448044289,Bharat AC001,06:00 AM - 10:00 PM,"https://www.google.com/maps/dir/Current+Location/13.027854,78.138306",13.027854,78.138306
Karnataka,Kolar,IOCL - Jai Hanuman Charging Station,"Survey No 15/1B, Municipal No 120/2/3, Petechemanahalli Arehalli",8197311766,Bharat AC001AC TYPE 2,06:00 AM - 10:00 PM,"https://www.google.com/maps/dir/Current+Location/13.110221,78.132202",13.110221,78.132202
Karnataka,Kolar,Kazam - Mulbagal Charging Station,"KBP Road,Mulbagal",9141441115,Bharat AC001,12:00 AM - 11:59 PM,"https://www.google.com/maps/dir/Current+Location/13.166355,78.393569",13.166355,78.393569
Karnataka,Kolar,Kazam - Hedaginabele Charging Station,Hedaginabele,8197688468,Bharat AC001,12:00 AM - 11:59 PM,"https://www.google.com/maps/dir/Current+Location/13.031114,77.902672",13.031114,77.902672
Karnataka,Kolar,IOCL - PARIJATHA Charging Station,Venkatapura,7829330410,16 Amp,06:00 AM - 10:00 PM,"https://www.google.com/maps/dir/Current+Location/13.137258,78.128134",13.137258,78.128134
Karnataka,Kolar,IOCL - KMC Charging Point,"Kencharlahalli, Kencharlahally",7829330410,16 Amp,06:00 AM - 10:00 PM,"https://www.google.com/maps/dir/Current+Location/13.521928,78.068164",13.521928,78.068164
Karnataka,Kolar,IOCL - Lakshmi Narasimha Charging Station,Padiganahalli,7829330410,16 Amp,06:00 AM - 10:00 PM,"https://www.google.com/maps/dir/Current+Location/13.273145,77.951023",13.273145,77.951023
Karnataka,Kolar,IOCL - KMC Charging Point,"Kencharlahalli, Kencharlahally",,16 Amp,06:00 AM - 10:00 PM,"https://www.google.com/maps/dir/Current+Location/13.521928,78.068164",13.521928,78.068164
Karnataka,Kolar,IOCL - Ramalingeshwara Charging Station,"485P M3V, Avani",7829330410,16 Amp,06:00 AM - 10:00 PM,"https://www.google.com/maps/dir/Current+Location/13.107662,78.329735",13.107662,78.329735
Karnataka,Kolar,IOCL - Lakshmi Channakeshava Charging Station,Srinivasapura KOLAR,7829330410,16 Amp,06:00 AM - 10:00 PM,"https://www.google.com/maps/dir/Current+Location/13.337451,78.206252",13.337451,78.206252
Karnataka,Kolar,IOCL - SRIKANTH ENERGY Charging Station,Konappalli,7829330410,16 Amp,06:00 AM - 10:00 PM,"https://www.google.com/maps/dir/Current+Location/13.407782,78.021884",13.407782,78.021884
Karnataka,Kolar,IOCL - Shreeja Charging Station,Sundrapalya,7829330410,16 Amp,06:00 AM - 10:00 PM,"https://www.google.com/maps/dir/Current+Location/13.010927,78.382967",13.010927,78.382967
Karnataka,Kolar,IOCL - PARIJATHA Charging Station,Venkatapura,6364926366,16 Amp,06:00 AM - 10:00 PM,"https://www.google.com/maps/dir/Current+Location/13.283067,77.816304",13.283067,77.816304
Karnataka,Kolar,IOCL - Esha Charging Station,Sulur Bellur,7829330410,16 Amp,06:00 AM - 10:00 PM,"https://www.google.com/maps/dir/Current+Location/13.129571,77.988656",13.129571,77.988656
Karnataka,Kolar,IOCL - Maruthi Charging Station,"Ground Floor Banglaore Malur Road, Kolar, Kallahalli",9448003745,16 Amp,06:00 AM - 10:00 PM,"https://www.google.com/maps/dir/Current+Location/13.005876,77.938325",13.005876,77.938325
Karnataka,Kolar,IOCL - VIJENDRA Charging Station,"34, Kgf Main Road, Opp. Petrol Bunk, Kyasamballi, Kaveranahalli",7829330410,16 Amp,06:00 AM - 10:00 PM,"https://www.google.com/maps/dir/Current+Location/12.955446,78.3442",12.955446,78.3442
Karnataka,Kolar,IOCL - Tirumala Srinivasa Charging Station,"Survey No 25/3, Barandahalli Kasaba",9741023638,Bharat AC001AC TYPE 2,12:00 AM - 11:59 PM,"https://www.google.com/maps/dir/Current+Location/13.163726,78.138777",13.163726,78.138777
Karnataka,Kolar,IOCL - Bhairavi Charging Station,"4, Tekal Rd, Jayanagara",7829330410,16 Amp,06:00 AM - 10:00 PM,"https://www.google.com/maps/dir/Current+Location/13.121362,78.126881",13.121362,78.126881
Karnataka,Kolar,IOCL - Namith Enterprises Charging Station,"Amaravathy Nagar, Bangarapet Nutuve",7829330410,16 Amp,06:00 AM - 10:00 PM,"https://www.google.com/maps/dir/Current+Location/12.984104,78.193759",12.984104,78.193759
Karnataka,Kolar,IOCL - Lakshmi Narasimha Charging Station,"Hoskote - Chintamani Rd, Beechagondahalli, Padiganahall",7829330410,16 Amp,06:00 AM - 10:00 PM,"https://www.google.com/maps/dir/Current+Location/13.272335,77.950952",13.272335,77.950952
Karnataka,Kolar,IOCL - SREE LAKSHMI MARUTHI Charging Station,Gauribidanur,7829330410,16 Amp,06:00 AM - 10:00 PM,"https://www.google.com/maps/dir/Current+Location/13.618316,77.514856",13.618316,77.514856
Karnataka,Kolar,Statiq - KFC (Private - Charging),"Survey No 11, &, 12, Venkatapura",8042754444,CCS-IICHAdeMOAC TYPE 2,12:00 AM - 11:59 PM,"https://www.google.com/maps/dir/Current+Location/13.139313,78.209063",13.139313,78.209063
Karnataka,Kolar,BESCOM - AEE Office Gauribidanur Charging Station,Gauribidanur,9483191212,Bharat AC001,12:00 AM - 11:59 PM,"https://www.google.com/maps/dir/Current+Location/13.609281,77.508054",13.609281,77.508054
Karnataka,Kolar,BESCOM - OFFICE GUDIBANDE Charging Station,"MMCX JW9, Gudibanda",8156261300,Bharat AC001,12:00 AM - 11:59 PM,"https://www.google.com/maps/dir/Current+Location/13.671602,77.699876",13.671602,77.699876
Karnataka,Kolar,BESCOM - Jangamakote Cross Charging Station,"7RCX CF9, Jangamakote Cross, Obalapura",8158252036,Bharat AC001,12:00 AM - 11:59 PM,"https://www.google.com/maps/dir/Current+Location/13.271261,77.848745",13.271261,77.848745
Karnataka,Kolar,BESCOM - Champion Reefs Charging Station,"W7V5 Q4V, Champion Reefs, Kolar Gold Fields",8153260236,Bharat AC001,12:00 AM - 11:59 PM,"https://www.google.com/maps/dir/Current+Location/12.944491,78.257789",12.944491,78.257789
Karnataka,Kolar,BESCOM - Henry Colony Charging Station,"X7C2 84M, Henry Colony, Kolar Gold Fields, Robertsonpet",9483191212,Bharat AC001,12:00 AM - 11:59 PM,"https://www.google.com/maps/dir/Current+Location/12.970845,78.250284",12.970845,78.250284
Karnataka,Kolar,BESCOM - Kolar Charging Station,"44G9 XJJ, Keelu Kote",9845102613,Bharat AC001,12:00 AM - 11:59 PM,"https://www.google.com/maps/dir/Current+Location/13.127484,78.119022",13.127484,78.119022
Karnataka,Kolar,BESCOM - KEB Office Masthi Charging Station,"VXCX 8C9, Masti",9483191212,Bharat AC001,12:00 AM - 11:59 PM,"https://www.google.com/maps/dir/Current+Location/12.870955,77.998655",12.870955,77.998655
Karnataka,Kolar,BESCOM - Mulbagal Charging Station,"Bus Stop, Chennai-Tirupati, Madras Bombay Trunk Rd, Mulbagal",9483191212,Bharat AC001,10:00 AM - 04:00 PM,"https://www.google.com/maps/dir/Current+Location/13.165102,78.394942",13.165102,78.394942
Karnataka,Kolar,BESCOM - Srinivasapura SDO Charging Station,"86V7 PC2, Srinivaspur",9483191212,Bharat AC001,12:00 AM - 11:59 PM,"https://www.google.com/maps/dir/Current+Location/13.344646,78.213543",13.344646,78.213543
Karnataka,Kolar,Statiq - SK International Innn Charging Station,"Channarayapura Road, Ajjapanahalli, Channarayapura Road, Ajjapanahalli, Kolar",8066465757,Bharat AC001,12:00 AM - 11:59 PM,"https://www.google.com/maps/dir/Current+Location/13.13307867109819,78.22048983983746",13.13307867109819,78.22048983983746
Karnataka,Koppal,IOCL - Adithi Charging Station,Sy.No.98/3 Bevur - Yelburga Road,9483458574,Bharat AC001,12:00 AM - 11:59 PM,"https://www.google.com/maps/dir/Current+Location/15.6131768,76.012911",15.6131768,76.012911
Karnataka,Koppal,IOCL - Shri Vinayak Charging Station,"Ground Floor, Kushtagi Road Koppal Bazar",9449045424,Bharat AC001AC TYPE 2,12:00 AM - 11:59 PM,"https://www.google.com/maps/dir/Current+Location/15.3579949,76.164826",15.3579949,76.164826
Karnataka,Koppal,IOCL - Reva Charging Station,"Survey No 56/3, Dadegal Halageri",9845822115,Bharat AC001AC TYPE 2,12:00 AM - 11:59 PM,"https://www.google.com/maps/dir/Current+Location/15.354737,76.1218",15.354737,76.1218
Karnataka,Koppal,HPCL - Ms/Hsd Vyshnavi &Co Charging Station,"Nh 13 Hitnal Cross, Hitnal, Koppal",,Bharat AC001,24 Hours,"https://www.google.com/maps/dir/Current+Location/15.320071,76.310887",15.320071,76.310887
Karnataka,Koppal,HPCL - Vaishnavi Charging Station,"Sy No.11/2 NH-50,Beside New Haryana Dhaba, Methagal Village, Post, Hasgal",2222863900,AC TYPE 2,12:00 AM - 11:59 PM,"https://www.google.com/maps/dir/Current+Location/15.507254,76.265637",15.507254,76.265637
Karnataka,Koppal,Ather-Nelludi Charging Station,"Plot No 5 & 6, Survey No 32 1K, Nelludi Motors, Vaddarahatti Village, Gangavathi",7676600900,,10:00 AM - 09:00 PM,"https://www.google.com/maps/dir/Current+Location/15.443081,76.511899",15.443081,76.511899
Karnataka,Koppal,Statiq - Hotel Poorvi Residency Charging Station,"Near Right Side Of The Hotel Premises, Uppaladinni, Koppal",01246201327,Bharat AC001Bharat DC-001,12:00 AM - 11:59 PM,"https://www.google.com/maps/dir/Current+Location/15.6388542,76.22061",15.6388542,76.22061
Karnataka,Mandya,Tata Power - Kalinga Tavern Residency Charging Station,"Bandadka - Bengaluru Rd, Hatna",18002095161,Bharat DC-001,10:00 AM - 07:00 AM,"https://www.google.com/maps/dir/Current+Location/12.974799,76.8256",12.974799,76.8256
Karnataka,Mandya,BPCL ANNEGOWDA Charging Station,BPCL - ANNEGOWDA PETROL BUNK Mandya,,CCS-2,Closed Now,"https://www.google.com/maps/dir/Current+Location/12.521452,76.895603",12.521452,76.895603
Karnataka,Mandya,IOCL - Janani Charging Station,Sy No.39 4 39 5 Mandya V. Kasaba 1 Hobli Mandya Tq,9886700749,Bharat AC001AC TYPE 2,12:00 AM - 11:59 PM,"https://www.google.com/maps/dir/Current+Location/12.5217143,76.89697",12.5217143,76.89697
Karnataka,Mandya,IOCL - S S Charging Station,"D4/1452/H/188A, Bannur Road Kallahalli",9242123300,Bharat AC001AC TYPE 2,12:00 AM - 11:59 PM,"https://www.google.com/maps/dir/Current+Location/12.520343,76.8854025",12.520343,76.8854025
Karnataka,Mandya,Pandavapura Charging Station,Pandavapura Hirode,9740743617,Bharat DC-001,10:00 AM - 07:00 PM,"https://www.google.com/maps/dir/Current+Location/12.616205,77.065885",12.616205,77.065885
Karnataka,Mandya,IOCL - Architha Charging Station,"No 511/5, Dundana Halli, Athaguru, Maddur Navile",8050094935,Bharat AC001,06:00 AM - 10:00 PM,"https://www.google.com/maps/dir/Current+Location/12.719348,77.057813",12.719348,77.057813
Karnataka,Mandya,Kazam - Pandavapura Charging Station,Pandavapura,9743730529,Bharat AC001,12:00 AM - 11:59 PM,"https://www.google.com/maps/dir/Current+Location/12.502217,76.677295",12.502217,76.677295
Karnataka,Mandya,IOCL - JANANI Charging Station,"Near Corporation Bank, VV Rd, Behind Ramana Hotel, Ashok Nagar, Mandya",8004253555,16 Amp,10:00 AM - 07:00 PM,"https://www.google.com/maps/dir/Current+Location/12.521644,76.897142",12.521644,76.897142
Karnataka,Mandya,IOCL - VAIRAMUDI Charging Station,"SH 33, Maddur Rd, Machahalli, Tubinakere",7829330410,16 Amp,10:00 AM - 07:00 PM,"https://www.google.com/maps/dir/Current+Location/12.687437,77.059422",12.687437,77.059422
Karnataka,Mandya,IOCL - ARCHITHA Charging Station,"Kunigal Maddur Rd, Dundana Halli, Bettadasanadoddi",7829330410,16 Amp,06:00 AM - 10:00 PM,"https://www.google.com/maps/dir/Current+Location/12.714607,77.058532",12.714607,77.058532
Karnataka,Mandya,IOCL - Sri Katte parameshwari Charging Station,"Khatha No 253, Sy No 10/2, Mandagere Akkihebbalu, K R Pete, Anegola",7829330410,16 Amp,06:00 AM - 10:00 PM,"https://www.google.com/maps/dir/Current+Location/12.730734,76.380312",12.730734,76.380312
Karnataka,Mandya,IOCL - SRI KALA BHAIRAVESHWARA Charging Station,Kiragavalu Santhemala,7829330410,16 Amp,06:00 AM - 10:00 PM,"https://www.google.com/maps/dir/Current+Location/12.359149,76.956631",12.359149,76.956631
Karnataka,Mandya,IOCL - SRI KALA BHAIRAVESHWARA Charging Station,"Kirugavalu, Kiragavalu Santhemala",7829330410,16 Amp,06:00 AM - 10:00 PM,"https://www.google.com/maps/dir/Current+Location/12.37604,76.949261",12.37604,76.949261
Karnataka,Mandya,IOCL - Sri Katte parameshwari Charging Station,Mandagere,7829330410,16 Amp,06:00 AM - 10:00 PM,"https://www.google.com/maps/dir/Current+Location/12.729989,76.379018",12.729989,76.379018
Karnataka,Mandya,Statiq - Saviruchi Veg (Private - Charger),"Sri Venkateshwara Arcade, Malavalli",8231242434,CCS-II,12:00 AM - 11:59 PM,"https://www.google.com/maps/dir/Current+Location/12.384735,77.05317",12.384735,77.05317
Karnataka,Mandya,HPCL - Kalgudi Charging Station,"Keelara Road, Besagara Halli",2222863900,Bharat AC001,06:00 AM - 10:00 PM,"https://www.google.com/maps/dir/Current+Location/12.589587,76.937761",12.589587,76.937761
Karnataka,Mandya,Ather-Mandya Charging Station,"No. K-7 & K-7/A Ward No. 6, Bangalore-Mysore Road",7676600900,,11:59 PM - 12:00 AM,"https://www.google.com/maps/dir/Current+Location/12.526639,76.87765",12.526639,76.87765
Karnataka,Mandya,Ather-Saviruchi Veg Restaurant (Private Charger),"Sri Venkateshwara Arcade, Malavalli",7676600900,,11:59 PM - 12:00 AM,"https://www.google.com/maps/dir/Current+Location/12.384726,77.053168",12.384726,77.053168
Karnataka,Mandya,Ather-Malavalli Charging Station,"Mandya - Belakavadi Road, Marehalli",7676600900,,11:59 PM - 12:00 AM,"https://www.google.com/maps/dir/Current+Location/12.384797,77.053202",12.384797,77.053202
Karnataka,Raichur,IOCL - Eranna Charging Station,Sy.No.41/2 Hirehanagi Village Kavithala Hoblisiravar,,Bharat AC001AC TYPE 2,12:00 AM - 11:59 PM,"https://www.google.com/maps/dir/Current+Location/16.119385,76.855807",16.119385,76.855807
Karnataka,Raichur,IOCL - Yeramarus Charging Station,"Ground Floor, Hyderabad Rd, Yeramarus Raichur Golthana",9945296111,Bharat AC001AC TYPE 2,12:00 AM - 11:59 PM,"https://www.google.com/maps/dir/Current+Location/16.1969999,77.342867",16.1969999,77.342867
Karnataka,Raichur,IOCL - Rudrabhupal Gouda Charging Station,"Survey No 144, SH 128, Sindhanur Haretnur",9886494369,Bharat AC001AC TYPE 2,12:00 AM - 11:59 PM,"https://www.google.com/maps/dir/Current+Location/15.771576,76.893476",15.771576,76.893476
Karnataka,Raichur,IOCL - Sri Rama Charging Station,"Survey No 256/2/2, Turvihal, Sindhanur Gunda",9448799882,Bharat AC001AC TYPE 2,12:00 AM - 11:59 PM,"https://www.google.com/maps/dir/Current+Location/16.0342077,75.545916",16.0342077,75.545916
Karnataka,Raichur,IOCL - Sri Saibaba Charging station,"Ground Floor, Raichur Lingsugur Road Golthana",9739075003,Bharat AC001AC TYPE 2,12:00 AM - 11:59 PM,"https://www.google.com/maps/dir/Current+Location/16.207484,77.2866274",16.207484,77.2866274
Karnataka,Raichur,IOCL - Hazrat Kljg Charging Station,Sy.No.144/1 Eklaspur Village,9886404404,Bharat AC001AC TYPE 2,06:00 AM - 10:00 PM,"https://www.google.com/maps/dir/Current+Location/16.216833,77.324761",16.216833,77.324761
Karnataka,Raichur,IOCL - Maruti Charging Station,Joladhadgi,7829330410,16 Amp,06:00 AM - 10:00 PM,"https://www.google.com/maps/dir/Current+Location/16.476369,76.93571",16.476369,76.93571
Karnataka,Raichur,Ather-Sri Vijayalaxmi Charging Station,"Gowshala, MPL NO: 12-11-86/1A Besides Road",7676600900,,10:00 AM - 09:00 PM,"https://www.google.com/maps/dir/Current+Location/16.213488,77.351545",16.213488,77.351545
Karnataka,Ramanagara,IOCL - Dore Charging Station,"Survey No 19/8, Magadi, Vengalapanahalli",9448270010,Bharat AC001AC TYPE 2,12:00 AM - 11:59 PM,"https://www.google.com/maps/dir/Current+Location/12.946475,77.267536",12.946475,77.267536
Karnataka,Ramanagara,Matha Charging Station,"Matha Fuel Station,Sy. No. 27/4 Village Banawadi Solur Hobli",,Bharat AC001Type 2,Closed Now,"https://www.google.com/maps/dir/Current+Location/13.12332,77.251107",13.12332,77.251107
Karnataka,Ramanagara,Magadi Charging Station,"Sri Krishna Fuel Station,Sy No:92/9 Tirumale Village Magadi Tqramanagara",,Bharat AC001Type 2,Closed Now,"https://www.google.com/maps/dir/Current+Location/12.9931026,77.484988",12.9931026,77.484988
Karnataka,Ramanagara,Kazam - Ujjanalli Charging Station,Ujjanalli,9844783541,Bharat AC001,12:00 AM - 11:59 PM,"https://www.google.com/maps/dir/Current+Location/12.548532,77.418747",12.548532,77.418747
Karnataka,Ramanagara,Charger - Rajathadri Charging Station,"SH 3, Melahalli, Karnataka",7829330410,16 Amp,10:00 AM - 07:00 PM,"https://www.google.com/maps/dir/Current+Location/12.384882,77.057831",12.384882,77.057831
Karnataka,Ramanagara,Charger - Poorvika car garage Charging Station,"Budihal, Karnataka",7829330410,16 Amp,10:00 AM - 07:00 PM,"https://www.google.com/maps/dir/Current+Location/13.133154,77.357089",13.133154,77.357089
Karnataka,Ramanagara,IOCL - SHRI KRISHNA Charging Station,"SH 85, Magadi",7829330410,16 Amp,06:00 AM - 10:00 PM,"https://www.google.com/maps/dir/Current+Location/12.954634,77.223028",12.954634,77.223028
Karnataka,Ramanagara,IOCL - SHRI KRISHNA Charging Station,"SH 85, Magadi, Karnataka",,16 Amp,06:00 AM - 10:00 PM,"https://www.google.com/maps/dir/Current+Location/12.954634,77.223028",12.954634,77.223028
Karnataka,Ramanagara,Charger - Dayanand Sagar Charging Station,"Devarakaggalahalli, Harohalli Kanakapura Road, Dt, Ramanagara",7829330410,16 Amp,10:00 AM - 07:00 PM,"https://www.google.com/maps/dir/Current+Location/12.66093,77.449493",12.66093,77.449493
Karnataka,Ramanagara,Charger - Zam Zam Engineering Works Charging Station,Kanakapura,7829330410,16 Amp,10:00 AM - 07:00 PM,"https://www.google.com/maps/dir/Current+Location/12.559458,77.42072",12.559458,77.42072
Karnataka,Ramanagara,Charger - Maruti Suzuki -Surakshaa Charging Station,"Kanakapura Rd, Hosakote",7829330410,16 Amp,10:00 AM - 07:00 PM,"https://www.google.com/maps/dir/Current+Location/12.694415,77.477045",12.694415,77.477045
Karnataka,Ramanagara,IOCL - MR Charging Station,"BIDADI TO, Harohalli Rd, MEDANAHALLI, Bidadi",9972834248,16 Amp,06:00 AM - 10:00 PM,"https://www.google.com/maps/dir/Current+Location/12.676201,77.553767",12.676201,77.553767
Karnataka,Ramanagara,IOCL - Rajathadri Charging Station,"Sy No 118/3 Mellahalli, Hobli, Kuttagallu",7829330410,16 Amp,06:00 AM - 10:00 PM,"https://www.google.com/maps/dir/Current+Location/12.807883,77.285028",12.807883,77.285028
Karnataka,Ramanagara,Charger - Sneha motors Charging Station,Kanakapura,7829330410,16 Amp,10:00 AM - 07:00 PM,"https://www.google.com/maps/dir/Current+Location/12.546227,77.423167",12.546227,77.423167
Karnataka,Ramanagara,IOCL - SHRI KRISHNA Charging Station,"Sy No 61/1, Ramanagara, Thirumale, Magadi Main Rd, Kasaba Hobli, Tavarekere",7829330410,16 Amp,06:00 AM - 10:30 PM,"https://www.google.com/maps/dir/Current+Location/12.951113,77.238457",12.951113,77.238457
Karnataka,Ramanagara,IOCL - MR Charging Station,Singarajipura,7829330410,16 Amp,06:00 AM - 10:00 PM,"https://www.google.com/maps/dir/Current+Location/12.555228,77.27248",12.555228,77.27248
Karnataka,Ramanagara,BESCOM - Chanpatna Sdo Charging Station,"M642 2PM, MG Rd, Channapatna",9483191212,Bharat AC001,12:00 AM - 11:59 PM,"https://www.google.com/maps/dir/Current+Location/12.655103,77.201816",12.655103,77.201816
Karnataka,Ramanagara,BESCOM - K.E.B HAROHALLI SUB DIVISION OFFICE Charging Station,"Office Of The AEE, Harohalli Subdivsion Ranganadoddi Village, 66\11KV Bidadi Rd KEB Station, Harohalli",9449841648,Bharat AC001,12:00 AM - 11:59 PM,"https://www.google.com/maps/dir/Current+Location/12.688856,77.463784",12.688856,77.463784
Karnataka,Ramanagara,BESCOM - State Bank of India HONGANUR CHANNAPATNA Charging Station,KODAMBALLY ROAD HONGANUR CHANNAPATNA TALUK,1800112211,Bharat AC001,12:00 AM - 11:59 PM,"https://www.google.com/maps/dir/Current+Location/12.605627,77.216303",12.605627,77.216303
Karnataka,Ramanagara,BESCOM - Office of the Executive Engineer(Ele) Charging Station,"GCMF X65, Kanakapura-Sangam Rd, Kanakapura",9483191212,Bharat AC001,12:00 AM - 11:59 PM,"https://www.google.com/maps/dir/Current+Location/12.535031,77.423104",12.535031,77.423104
Karnataka,Ramanagara,BESCOM - Maralawadi Section Charging Station,"JG8F C29, Chikkamaralavadi",9483191212,Bharat AC001,12:00 AM - 11:59 PM,"https://www.google.com/maps/dir/Current+Location/12.61798,77.522813",12.61798,77.522813
Karnataka,Ramanagara,BESCOM - Ramanagara Division Charging Station,"P7CM Q8F, Railway Station Road, Moti Nagar, Agrahar",8027271385,Bharat AC001,10:00 AM - 05:30 PM,"https://www.google.com/maps/dir/Current+Location/12.722147,77.283306",12.722147,77.283306
Karnataka,Ramanagara,Ather-Ramanagara Charging Station,"Ward No 27, Block 2 B M Road, Rotary Border Ramanagara Town",7676600900,,11:59 PM - 12:00 AM,"https://www.google.com/maps/dir/Current+Location/12.730215,77.277729",12.730215,77.277729
Karnataka,Ramanagara,Ather-Harohalli Charging Station,"No 41/3, Opp KSRTC Bus Depot, Hoskote Village, Harohalli Hobli, Kanakpura Taluq, Ramnagar",7676600900,,11:59 PM - 12:00 AM,"https://www.google.com/maps/dir/Current+Location/12.697512,77.478282",12.697512,77.478282
Karnataka,Udupi,IOCL - Shri Lakshmi Charging Station,"Ground Floor, Herga Athradi",9902596184,Bharat AC001AC TYPE 2,12:00 AM - 11:59 PM,"https://www.google.com/maps/dir/Current+Location/13.355247,74.816554",13.355247,74.816554
Karnataka,Udupi,IOCL - Malnad Charging station,"Ground Floor, Gopady, Kundapur Asodu",9986123007,Bharat AC001AC TYPE 2,12:00 AM - 11:59 PM,"https://www.google.com/maps/dir/Current+Location/13.582097,74.698017",13.582097,74.698017
Karnataka,Udupi,Nitte Charging Station,"Nitte Laxmi Fuels,Indianoil Dealer Near Nitte College Nitte Karakala Tk Udupi",,Bharat AC001Type 2,Closed Now,"https://www.google.com/maps/dir/Current+Location/13.18538,74.93932",13.18538,74.93932
Karnataka,Udupi,IOCL - Rahuthanakatte Charging Station,"Ground Floor, Yedthare Byndoor",9448123746,Bharat AC001AC TYPE 2,12:00 AM - 11:59 PM,"https://www.google.com/maps/dir/Current+Location/13.852628,74.629911",13.852628,74.629911
Karnataka,Udupi,IOCL - United Charging Station,"Ground Floor, Kaup Kattingeri",9449530324,Bharat AC001AC TYPE 2,12:00 AM - 11:59 PM,"https://www.google.com/maps/dir/Current+Location/13.2286754,74.746601",13.2286754,74.746601
Karnataka,Udupi,Charger - PRAJWAL ENTERPRISES Charging Station,Ambagilu,7829330410,16 Amp,24 Hours,"https://www.google.com/maps/dir/Current+Location/13.370876,74.746465",13.370876,74.746465
Karnataka,Udupi,Charger - PRAJWAL ENTERPRISES Charging Station,Ambagilu,7829330410,16 Amp,24 Hours,"https://www.google.com/maps/dir/Current+Location/13.370876,74.746465",13.370876,74.746465
Karnataka,Udupi,Charger - RENOCH Charging Station,"Marker 1/1, Near Sharada High School M, Jaddu",7829330410,16 Amp,10:00 AM - 07:00 PM,"https://www.google.com/maps/dir/Current+Location/13.42192,74.805551",13.42192,74.805551
Karnataka,Udupi,Charger - PRAJWAL ENTERPRISES Charging Station,"Kalsanka Ambagilu Rd, Ambagilu, Kalayanapura",7829330410,16 Amp,10:00 AM - 07:00 PM,"https://www.google.com/maps/dir/Current+Location/13.367085,74.747758",13.367085,74.747758
Karnataka,Udupi,IOCL - H S MULLIKATTE Charging Station,Hosadu,7829330410,16 Amp,06:00 AM - 10:00 PM,"https://www.google.com/maps/dir/Current+Location/13.689139,74.668761",13.689139,74.668761
Karnataka,Udupi,IOCL - H S MULLIKATTE Charging Station,Hosadu,7829330410,16 Amp,06:00 AM - 10:00 PM,"https://www.google.com/maps/dir/Current+Location/13.693523,74.671969",13.693523,74.671969
Karnataka,Udupi,Statiq - Mariamma Temple Charging Station,"6PMW FRX, Kaup Main Rd, Uliyargoli, Kaup",8070743743,AC PLUG POINT,12:00 AM - 11:59 PM,"https://www.google.com/maps/dir/Current+Location/13.234144,74.747108",13.234144,74.747108
Karnataka,Udupi,Statiq - Kundapura Charging Station,"LIC Rd, Kundapura",8070743743,AC TYPE 2,12:00 AM - 11:59 PM,"https://www.google.com/maps/dir/Current+Location/13.618521,74.688823",13.618521,74.688823
Karnataka,Udupi,Ather-Mandeep Marbles Charging Station,"No 80/3B1, NH 66, Ambalpadi",7676600900,,11:59 PM - 12:00 AM,"https://www.google.com/maps/dir/Current+Location/13.334671,74.736805",13.334671,74.736805
Karnataka,Udupi,Ather-Archana Projects Charging Station,"1st Floor, Ananth Towers, Court Rd, Kadekoppala, Chitpady",7676600900,,11:59 PM - 12:00 AM,"https://www.google.com/maps/dir/Current+Location/13.333904,74.748827",13.333904,74.748827
Karnataka,Udupi,"Ather Space, Udupi","Himalaya Prestige, Udupi-Manipal Highway, Kadiyali",7676600900,,11:59 PM - 12:00 AM,"https://www.google.com/maps/dir/Current+Location/13.346397,74.760241",13.346397,74.760241
Karnataka,Udupi,Ather-Ambagilu Charging Station,"Try Auto Gears Pvt Ltd, Opp Bharath Tile Factory, Ambagilu",7676600900,,11:59 PM - 12:00 AM,"https://www.google.com/maps/dir/Current+Location/13.372844,74.745284",13.372844,74.745284
Karnataka,Udupi,Ather-Bhavana Enterprises Charging Station,"No 29-130BIC, Main Road, Near Sabha Bhavana, Malpe",7676600900,,11:59 PM - 12:00 AM,"https://www.google.com/maps/dir/Current+Location/13.348326,74.706692",13.348326,74.706692
Karnataka,Udupi,Ather-Sangeetha Mobiles Charging Station,"No. 4- 164/3, Shalin Towers , Block No.3, Karkala Taluk",7676600900,,11:59 PM - 12:00 AM,"https://www.google.com/maps/dir/Current+Location/13.215619,74.995008",13.215619,74.995008
Karnataka,Udupi,Ather-Manipal Charging Station,"Manipal -Parkala Road, NH169A, Eshwar Nagar",7676600900,,11:59 PM - 12:00 AM,"https://www.google.com/maps/dir/Current+Location/13.349206,74.7859",13.349206,74.7859
Karnataka,Udupi,Ather-Sangeetha Mobiles Charging Station,"Ground Floor, Ullas Building, Kundapura Main Road, Kundapura",7676600900,,11:59 PM - 12:00 AM,"https://www.google.com/maps/dir/Current+Location/13.627654,74.690614",13.627654,74.690614
Karnataka,Udupi,Ather-Kanchana Charging Station,"No I-II-178/F, 178/G, Kanchana Hyundai, Tallur, Kundapura",7676600900,,11:59 PM - 12:00 AM,"https://www.google.com/maps/dir/Current+Location/13.651009,74.70691",13.651009,74.70691
Karnataka,Uttara Kannada,IOCL - Bhargava Charging Station,"Ground Floor, Kavalakki, Honavar Chikkankod",9449127412,Bharat AC001AC TYPE 2,12:00 AM - 11:59 PM,"https://www.google.com/maps/dir/Current+Location/14.296072,74.498676",14.296072,74.498676
Karnataka,Uttara Kannada,IOCL - Jai Hanuman Charging Station,B.K.Halli Villagehaliyal Tk Uttara Kannada,8197311766,Bharat AC001AC TYPE 2,24 Hours,"https://www.google.com/maps/dir/Current+Location/16.3543747,74.615074",16.3543747,74.615074
Karnataka,Uttara Kannada,Tata Power - TSS Super Market Yellapur Charging Station,"Sirsi, JRFR+3GF, APMC Road, Market Yard,Sirsi",9742211172,CCS-IIBharat AC001,12:00 AM - 11:59 PM,"https://www.google.com/maps/dir/Current+Location/14.958673,74.718102",14.958673,74.718102
Karnataka,Uttara Kannada,Ather-Kanchana Charging Station,"No 162, Kanchana , NH 66, Near Gore Cross, Kumta",7676600900,,11:59 PM - 12:00 AM,"https://www.google.com/maps/dir/Current+Location/14.387183,74.408611",14.387183,74.408611
Karnataka,Uttara Kannada,Ather-Kanchana Charging Station,"No 1 Kanchana Hyundai, Railway Station Road, Habbuwada, Karwar",7676600900,,11:59 PM - 12:00 PM,"https://www.google.com/maps/dir/Current+Location/14.811871,74.143534",14.811871,74.143534
Karnataka,Uttara Kannada,Ather-Hotel Lavender Elite (Private Charger),"Sy No 36/1B, HN 1415, Near NH 66, Karki Village, Honavar",7676600900,,11:59 PM - 12:59 PM,"https://www.google.com/maps/dir/Current+Location/14.31657,74.42833",14.31657,74.42833
Karnataka,Yadgir,IOCL - Avidan Charging Station,Hundekal Village Yadgir,,Bharat AC001,12:00 AM - 11:59 PM,"https://www.google.com/maps/dir/Current+Location/16.670111,76.961144",16.670111,76.961144
Karnataka,Yadgir,IOCL - Akshaya Charging Station,Sy.No.356/3 Kandakura Village Kushtagi Taluk Koppal,9448693999,Bharat AC001,06:00 AM - 10:00 PM,"https://www.google.com/maps/dir/Current+Location/16.780796,77.329588",16.780796,77.329588
Karnataka,Yadgir,IOCL - Maruti Charging Station,FWFP VH Joladhadgi,7829330410,16 Amp,06:00 AM - 10:00 PM,"https://www.google.com/maps/dir/Current+Location/16.474893,76.936427",16.474893,76.936427
Karnataka,Yadgir,IOCL - Linganna Gouda Malhar Charging Station,Poglapur,7829330410,16 Amp,06:00 AM - 10:00 PM,"https://www.google.com/maps/dir/Current+Location/16.702382,77.166236",16.702382,77.166236
Karnataka,Yadgir,Ather-Yadgir Charging Station,"Plot No 101 Gurusunagi Cross, Shahapur Road",7676600900,,10:00 AM - 09:00 PM,"https://www.google.com/maps/dir/Current+Location/16.730375,77.097022",16.730375,77.097022
