State,District,Station Name,Address,Contact,Services,Final Timing,Map URL,Latitude,Longitude
Odisha,Angul,Tata Power - Samal Equip Charging Station,"Samal Equip, Nuahata",9246419559,CCS-IIBharat DC-001,12:00 AM - 11:59 PM,"https://www.google.com/maps/dir/C-2%2F42,+Service+Rd,+Lucknow,+Uttar+Pradesh+226010/20.832862,85.238258/@23.8245421,80.4594932,7z/data=!3m1!4b1!4m8!4m7!1m5!1m1!1s0x399958aa82ac850d:0x391d4edb5b1d20d2!2m2!1d81.0737409!2d26.8912593!1m0?entry=ttu&g_ep=EgoyMDI1MDQzMC4xIKXMDSoASAFQAw%3D%3D",23.8245421,80.4594932
Odisha,Angul,Tata Power - Trupti Automotives Charging Station,"Angul , NH 55, TELCO CHOWK, NUAHATA, Banarpal",9246419559,CCS-IIBharat DC-001,12:00 AM - 11:59 PM,"https://www.google.com/maps/dir/Current+Location/20.8317557,85.24166",20.8317557,85.24166
Odisha,Angul,IOCL - Hari Om Charging Station,"Ground Floor, Garhsantri, Banarpal Arahat",9937737058,Bharat AC001AC TYPE 2,12:00 AM - 11:59 PM,"https://www.google.com/maps/dir/Current+Location/21.249045,85.276166",21.249045,85.276166
Odisha,Angul,IOCL - Jai Hanuman Charging Station,"Ground Floor, Khamar, Pallahara Badasada",8249700026,Bharat AC001AC TYPE 2,12:00 AM - 11:59 PM,"https://www.google.com/maps/dir/Current+Location/21.26473,85.176032",21.26473,85.176032
Odisha,Angul,IOCL - Mirania Charging Station,Ground Floor Angul Bazar,9937111780,Bharat AC001AC TYPE 2,12:00 AM - 11:59 PM,"https://www.google.com/maps/dir/Current+Location/20.852629,85.186567",20.852629,85.186567
Odisha,Angul,IOCL - Rainbow Charging Station,"Ground Floor, Thakurgarh Sanahula",9437128433,Bharat AC001AC TYPE 2,12:00 AM - 11:59 PM,"https://www.google.com/maps/dir/C-2%2F42,+Service+Rd,+Lucknow,+Uttar+Pradesh+226010/20.722922,84.534602/@23.7869001,80.0993139,7z/data=!3m1!4b1!4m8!4m7!1m5!1m1!1s0x399958aa82ac850d:0x391d4edb5b1d20d2!2m2!1d81.0737409!2d26.8912593!1m0?entry=ttu&g_ep=EgoyMDI1MDQzMC4xIKXMDSoASAFQAw%3D%3D",23.7869001,80.0993139
Odisha,Angul,IOCL - Riya Charging Station,Plot No 723 Bantala,8637269084,Bharat AC001AC TYPE 2,12:00 AM - 11:59 PM,"https://www.google.com/maps/dir/Current+Location/20.748579,85.065967",20.748579,85.065967
Odisha,Angul,IOCL - Souvagini Charging Station,"Ground Floor, Nizigarh, Hindol Badajarada",9439126098,Bharat AC001AC TYPE 2,12:00 AM - 11:59 PM,"https://www.google.com/maps/dir/Current+Location/20.649243,85.590867",20.649243,85.590867
Odisha,Angul,IOCL - Sriya Charging Station,"Ground Floor, Natada Badajharana",9437290067,Bharat AC001AC TYPE 2,12:00 AM - 11:59 PM,"https://www.google.com/maps/dir/C-2%2F42,+Service+Rd,+Lucknow,+Uttar+Pradesh+226010/20.936343,85.058148/@23.8937141,80.3613679,7z/data=!3m1!4b1!4m8!4m7!1m5!1m1!1s0x399958aa82ac850d:0x391d4edb5b1d20d2!2m2!1d81.0737409!2d26.8912593!1m0?entry=ttu&g_ep=EgoyMDI1MDQzMC4xIKXMDSoASAFQAw%3D%3D",23.8937141,80.3613679
Odisha,Angul,Tata Power - Hotel Prasanti ( Private - Charger),"NH55, Turanga",9246419559,CCS-IIAC TYPE 2,12:00 AM - 11:59 PM,"https://www.google.com/maps/dir/Current+Location/20.845148,85.116182",20.845148,85.116182
Odisha,Angul,HPCL - Ganpati Charging Station,"W6VG 29R, Talcher",8888823456,AC TYPE 2,12:00 AM - 11:59 PM,"https://www.google.com/maps/dir/C-2%2F42,+Service+Rd,+Lucknow,+Uttar+Pradesh+226010/20.942623,85.225901/@23.8968426,80.4445392,7z/data=!3m1!4b1!4m8!4m7!1m5!1m1!1s0x399958aa82ac850d:0x391d4edb5b1d20d2!2m2!1d81.0737409!2d26.8912593!1m0?entry=ttu&g_ep=EgoyMDI1MDQzMC4xIKXMDSoASAFQAw%3D%3D",23.8968426,80.4445392
Odisha,Angul,HPCL - Shantilata Charging Station,"Rahani, Birasal Rd, Khajuria",8984648515,AC TYPE 2,05:00 AM - 10:00 PM,"https://www.google.com/maps/dir/Current+Location/20.986637,85.663147",20.986637,85.663147
Odisha,Angul,HPCL - SUBHAYANA Charging Station,"Pal Lahara Rd, Chakradharpur",2222863900,AC TYPE 2,12:00 AM - 11:59 PM,"https://www.google.com/maps/dir/C-2%2F42,+Service+Rd,+Lucknow,+Uttar+Pradesh+226010/21.305978,85.181488/@24.0784004,80.4232269,7z/data=!3m1!4b1!4m8!4m7!1m5!1m1!1s0x399958aa82ac850d:0x391d4edb5b1d20d2!2m2!1d81.0737409!2d26.8912593!1m0?entry=ttu&g_ep=EgoyMDI1MDQzMC4xIKXMDSoASAFQAw%3D%3D",24.0784004,80.4232269
Odisha,Balangir,IOCL - Abhinandan Charging Station,"Ground Floor, Titlagarh Bandhupala",9338788387,Bharat AC001AC TYPE 2,12:00 AM - 11:59 PM,"https://www.google.com/maps/dir/Current+Location/20.275637,83.179746",20.275637,83.179746
Odisha,Balangir,IOCL - Mittal Charging Station,"Ground Floor, Loisingha, Balangir Khaliapali",8895965811,Bharat AC001AC TYPE 2,12:00 AM - 11:59 PM,"https://www.google.com/maps/dir/Current+Location/20.861398,83.509784",20.861398,83.509784
Odisha,Balangir,IOCL - Jain Charging Station,Ground Floor Dunguripali Near Tusra,9437368583,Bharat AC001AC TYPE 2,12:00 AM - 11:59 PM,"https://www.google.com/maps/dir/Current+Location/20.503889,83.483032",20.503889,83.483032
Odisha,Balangir,IOCL - Shiva Charging Station,"Ground Floor, Palace Line Koushal Chowk Near Balangir Court",9437032251,Bharat AC001AC TYPE 2,12:00 AM - 11:59 PM,"https://www.google.com/maps/dir/Current+Location/20.691873,83.472546",20.691873,83.472546
Odisha,Balasore,Tata Power - TML gramps auto bampada balasore charging station,NH 16 (Old NH 5) Bampada,18008332233,CCS-IIBharat DC-001,12:00 AM - 11:59 PM,"https://www.google.com/maps/dir/Current+Location/19.39409221766196,84.08593691254056",19.39409221766196,84.08593691254056
Odisha,Balasore,IOCL - Behera Charging Station,"Ground Floor, Baliapal, Remu Jamsuli",7972168442,Bharat AC001AC TYPE 2,12:00 AM - 11:59 PM,"https://www.google.com/maps/dir/Current+Location/21.654476,87.283986",21.654476,87.283986
Odisha,Balasore,IOCL - Bishnu Mohan Charging Station,"Ground Floor, Kamanpur, Tentulipokhari, Soro Angula",9090607494,Bharat AC001AC TYPE 2,12:00 AM - 11:59 PM,"https://www.google.com/maps/dir/Current+Location/21.276109,86.707104",21.276109,86.707104
Odisha,Balasore,IOCL - Sai Sipra Charging Station,"Ground Floor, Kharasahapur, Soro, Bahanaga Anantapur",8876578196,Bharat AC001AC TYPE 2,12:00 AM - 11:59 PM,"https://www.google.com/maps/dir/Current+Location/21.351069,86.76673",21.351069,86.76673
Odisha,Bargarh,IOCL - Maa Chandrahasini Charging Station,"Ground Floor, Ruchida Ambabhona",9178136666,Bharat AC001AC TYPE 2,12:00 AM - 11:59 PM,"https://www.google.com/maps/dir/C-2%2F42,+Service+Rd,+Lucknow,+Uttar+Pradesh+226010/21.579396,83.474591/@24.215013,79.6307996,7z/data=!3m1!4b1!4m8!4m7!1m5!1m1!1s0x399958aa82ac850d:0x391d4edb5b1d20d2!2m2!1d81.0737409!2d26.8912593!1m0?entry=ttu&g_ep=EgoyMDI1MDQzMC4xIKXMDSoASAFQAw%3D%3D",24.215013,79.6307996
Odisha,Bargarh,IOCL - Tara Maa Charging Station,"Ground Floor, Badkunjari Jagdalpur",9437058557,Bharat AC001AC TYPE 2,12:00 AM - 11:59 PM,"https://www.google.com/maps/dir/Current+Location/21.135895,82.957516",21.135895,82.957516
Odisha,Bargarh,IOCL - Tuli Gasoline Charging Station,Ground Floor Bhatli Chowk Near Bargarh Bazar,9438202410,Bharat AC001AC TYPE 2,12:00 AM - 11:59 PM,"https://www.google.com/maps/dir/C-2%2F42,+Service+Rd,+Lucknow,+Uttar+Pradesh+226010/21.342544,83.624287/@24.0964768,79.8985615,7z/data=!3m1!4b1!4m8!4m7!1m5!1m1!1s0x399958aa82ac850d:0x391d4edb5b1d20d2!2m2!1d81.0737409!2d26.8912593!1m0?entry=ttu&g_ep=EgoyMDI1MDQzMC4xIKXMDSoASAFQAw%3D%3D",24.0964768,79.8985615
Odisha,Bhadrak,IOCL - Hemalata Charging Station,"Ground Floor, Kapagadia, Basudevpur Albaga",9938136433,Bharat AC001AC TYPE 2,12:00 AM - 11:59 PM,"https://www.google.com/maps/dir/Current+Location/21.131532,86.734786",21.131532,86.734786
Odisha,Bhadrak,IOCL - Alok Jyoti Charging Station,"Ground Floor, Chandabali, Bashada Baincha",9937596903,Bharat AC001AC TYPE 2,12:00 AM - 11:59 PM,"https://www.google.com/maps/dir/Current+Location/20.870114,86.860829",20.870114,86.860829
Odisha,Boudh,IOCL - Ahwan Charging Station,"Ground Floor, Rundimahal, Barapadar, Katamal Tangiapali",9937994729,Bharat AC001AC TYPE 2,12:00 AM - 11:59 PM,"https://www.google.com/maps/dir/Current+Location/20.687081,84.014689",20.687081,84.014689
Odisha,Cuttack,Tata Power - GUGNANI AUTOCARS Charging Station,"PLOT NO- 785, PRATAP NAGARI",9246419559,CCS-IICHAdeMO,12:00 AM - 11:59 PM,"https://www.google.com/maps/dir/Current+Location/20.40517,85.879782",20.40517,85.879782
Odisha,Cuttack,Mahindra - Electric Aditya Motors Charging Station,"Mahindra Electric Aditya Motors, NH 5, Bamphakuda, Phulnakhara, Cuttack M Corporation PS, Cuttack M Corp PS, Cuttack District, Odisha, 753011",7873999636,AC PLUG POINT3PIN,10:00 AM - 07:00 PM,"https://www.google.com/maps/dir/Current+Location/20.374496,85.889916",20.374496,85.889916
Odisha,Cuttack,Tata Power - Trupti Automotives Charging Station,NH 16 - Manguli Chowk,9246419559,CCS-IIBharat DC-001,12:00 AM - 11:59 PM,"https://www.google.com/maps/dir/Current+Location/20.529316,85.949237",20.529316,85.949237
Odisha,Cuttack,IOCL - Omm Satyam Charging Station,"Ground Floor, Nuabandha, Athagarh Abhimanpur",8279366759,Bharat AC001AC TYPE 2,12:00 AM - 11:59 PM,"https://www.google.com/maps/dir/Current+Location/20.49179,85.574252",20.49179,85.574252
Odisha,Cuttack,Tata Power - Dion Automotives Charging Station,"CDA Sector 11, Cuttack",9246419559,CCS-IIBharat DC001 GB/T,12:00 AM - 11:59 PM,"https://www.google.com/maps/dir/Current+Location/20.481787,85.817213",20.481787,85.817213
Odisha,Cuttack,Charger - Gitanjali ICT Charging Station,Pratap Nagari Urali,7829330410,16 Amp,10:00 AM - 07:00 PM,"https://www.google.com/maps/dir/Current+Location/20.403954,85.876046",20.403954,85.876046
Odisha,Cuttack,HPCL - Jaga balia Charging Station,"SH 65, Panchagan, Nizigarh",8249241171,AC TYPE 2,05:00 AM - 10:00 PM,"https://www.google.com/maps/dir/Current+Location/20.467802,85.523476",20.467802,85.523476
Odisha,Cuttack,HPCL - Sri Achyuta Charging Station,"C5QC HV9, Jaladia",8888823456,AC TYPE 2,12:00 AM - 11:59 PM,"https://www.google.com/maps/dir/Current+Location/20.438812,86.17228",20.438812,86.17228
Odisha,Cuttack,HPCL - Shree Raghunath Charging Station,"9HQ2 57R, Banki - Cuttack Rd",2222863900,AC TYPE 2,12:00 AM - 11:59 PM,"https://www.google.com/maps/dir/Current+Location/20.387992,85.550626",20.387992,85.550626
Odisha,Cuttack,HPCL - Padmini Charging Station,Nischintakoili,2222863900,AC TYPE 2,12:00 AM - 11:59 PM,"https://www.google.com/maps/dir/Current+Location/20.478659,86.183469",20.478659,86.183469
Odisha,Cuttack,HPCL - Pattanayak Charging Station,"Main Road, Narsinghpur",9937540440,AC TYPE 2,05:00 AM - 09:30 PM,"https://www.google.com/maps/dir/C-2%2F42,+Service+Rd,+Lucknow,+Uttar+Pradesh+226010/20.460689,85.079253/@23.6560276,80.4290414,7z/data=!3m1!4b1!4m8!4m7!1m5!1m1!1s0x399958aa82ac850d:0x391d4edb5b1d20d2!2m2!1d81.0737409!2d26.8912593!1m0?entry=ttu&g_ep=EgoyMDI1MDQzMC4xIKXMDSoASAFQAw%3D%3D",23.6560276,80.4290414
Odisha,Cuttack,HPCL - Saikrupa Charging Station,"Banki - Cuttack Rd, Chakradharpur",2222863900,AC TYPE 2,06:00 AM - 10:00 PM,"https://www.google.com/maps/dir/Uattardhona,+Uttar+Pradesh/20.434924,85.769793/@23.6427233,80.7715151,7z/data=!3m1!4b1!4m8!4m7!1m5!1m1!1s0x399be207e556dd5d:0x379527c1feb0fcbc!2m2!1d81.0648758!2d26.8912141!1m0?entry=ttu&g_ep=EgoyMDI1MDQzMC4xIKXMDSoASAFQAw%3D%3D",23.6427233,80.7715151
Odisha,Cuttack,Ather-Drool Charging Station,"461, Mahtab Rd, Dolmundai",7676600900,,10:00 AM - 09:00 PM,"https://www.google.com/maps/dir/Current+Location/20.462262,85.883755",20.462262,85.883755
Odisha,Cuttack,Ather-Cuttack Charging Station,"Urmila Complex, At PO: Madhupatna, Near Madhupatna Police Station",7676600900,,10:00 AM - 09:00 PM,"https://www.google.com/maps/dir/Current+Location/20.449363,85.898738",20.449363,85.898738
Odisha,Cuttack,Ather-MS Car Wash Charging Station,"Service Rd, Gandarpur",7676600900,,10:00 AM - 09:00 PM,"https://www.google.com/maps/dir/Current+Location/20.466966,85.904798",20.466966,85.904798
Odisha,Cuttack,Ather-Cuttack Charging Station,Industrial Estate Khapuria,7676600900,,10:00 AM - 09:00 PM,"https://www.google.com/maps/dir/Current+Location/20.443022,85.904332",20.443022,85.904332
Odisha,Cuttack,Ather-Hotel Sai Continental Charging Station,"Sector -VI, CDA",7676600900,,10:00 AM - 09:00 PM,"https://www.google.com/maps/dir/Current+Location/20.480091,85.8399",20.480091,85.8399
Odisha,Dhenkanal,Maa Tarini Charging Station,Babanda Hindol Angul,,AC TYPE 2,10:00 AM - 07:00 PM,"https://www.google.com/maps/dir/Current+Location/20.723803,85.414207",20.723803,85.414207
Odisha,Dhenkanal,Mshsd Matrukrupa Charging Station,Jaripal Odisha,,AC TYPE 2,10:00 AM - 07:00 PM,"https://www.google.com/maps/dir/Uattardhona,+Uttar+Pradesh/20.579145,85.435665/@23.7152428,80.6044025,7z/data=!3m1!4b1!4m8!4m7!1m5!1m1!1s0x399be207e556dd5d:0x379527c1feb0fcbc!2m2!1d81.0648758!2d26.8912141!1m0?entry=ttu&g_ep=EgoyMDI1MDQzMC4xIKXMDSoASAFQAw%3D%3D",23.7152428,80.6044025
Odisha,Gajapati,IOCL - Asha Charging Station,Ground Floor Nuagada,9438469168,Bharat AC001AC TYPE 2,12:00 AM - 11:59 PM,"https://www.google.com/maps/dir/Current+Location/19.10069,84.047813",19.10069,84.047813
Odisha,Gajapati,IOCL - Nirmalya Charging Station,"Ground Floor, Brahman Sitapur, Paralakhemundi Chitrakar Street",9437135312,Bharat AC001AC TYPE 2,12:00 AM - 11:59 PM,"https://www.google.com/maps/dir/Current+Location/18.783616,84.094269",18.783616,84.094269
Odisha,Gajapati,IOCL - Sri Durga Charging Station,"Ground Floor, Kasinagar, Parsurampur, Hadobhangi Bapenbadi",7752020429,Bharat AC001AC TYPE 2,12:00 AM - 11:59 PM,"https://www.google.com/maps/dir/Current+Location/18.859417,83.873812",18.859417,83.873812
Odisha,Ganjam,Kishore Fs Charging Station,At Goilundi Berhampur Dist. Ganjam,,Bharat AC001Type 2,Closed Now,"https://www.google.com/maps/dir/Current+Location/19.310722,84.805446",19.310722,84.805446
Odisha,Ganjam,IOCL - Kuntala Charging Station,"Ground Floor, Jarada, Patrapur Jayantipur",8658356355,Bharat AC001AC TYPE 2,12:00 AM - 11:59 PM,"https://www.google.com/maps/dir/Current+Location/19.132042,84.567647",19.132042,84.567647
Odisha,Ganjam,IOCL - Maa Kalua Charging Station,"Ground Floor, Kanamana, Chamakhandi Bada Aryapalli",7735707408,Bharat AC001AC TYPE 2,12:00 AM - 11:59 PM,"https://www.google.com/maps/dir/Current+Location/19.326999,84.921355",19.326999,84.921355
Odisha,Ganjam,IOCL - Manorama Charging Station,"Ground Floor, Rambha Humma",7978721993,Bharat AC001AC TYPE 2,12:00 AM - 11:59 PM,"https://www.google.com/maps/dir/Current+Location/19.511116,85.089033",19.511116,85.089033
Odisha,Ganjam,IOCL - Armaan Charging Station,"Ground Floor, Bhutasarasingi, Purushottampur Arakhapur",7008450041,Bharat AC001AC TYPE 2,12:00 AM - 11:59 PM,"https://www.google.com/maps/dir/Current+Location/19.533988,84.859311",19.533988,84.859311
Odisha,Ganjam,IOCL - Bajrangbali Charging Station,"Ground Floor, Biluapada, Ghumusar, Tarasinga Gallery",7894222959,Bharat AC001AC TYPE 2,12:00 AM - 11:59 PM,"https://www.google.com/maps/dir/Current+Location/20.101671,84.571754",20.101671,84.571754
Odisha,Ganjam,IOCL - Prabhakar Charging Station,"Ground Floor, NH 16, Berhampur Ankuli",9437621057,Bharat AC001AC TYPE 2,12:00 AM - 11:59 PM,"https://www.google.com/maps/dir/Current+Location/19.30329,84.825882",19.30329,84.825882
Odisha,Ganjam,IOCL - Pramod Charging Station,"Ground Floor, Gopalpur Badaputi",9861088181,Bharat AC001AC TYPE 2,12:00 AM - 11:59 PM,"https://www.google.com/maps/dir/Current+Location/19.262683,84.865227",19.262683,84.865227
Odisha,Ganjam,IOCL - Raghunath Charging Station,"Ground Floor, Badapalanka, Nuagaon, Pitatali Chikiti",8280066686,Bharat AC001AC TYPE 2,12:00 AM - 11:59 PM,"https://www.google.com/maps/dir/Uattardhona,+Uttar+Pradesh/19.199241,84.610219/@22.9589312,77.514516,6z/data=!3m1!4b1!4m8!4m7!1m5!1m1!1s0x399be207e556dd5d:0x379527c1feb0fcbc!2m2!1d81.0648758!2d26.8912141!1m0?entry=ttu&g_ep=EgoyMDI1MDQzMC4xIKXMDSoASAFQAw%3D%3D",22.9589312,77.514516
Odisha,Ganjam,IOCL - Ram Sai Fuel Center Charging Station,"Ground Floor, SH 21 Jagannathprasad",8458013293,Bharat AC001AC TYPE 2,12:00 AM - 11:59 PM,"https://www.google.com/maps/dir/Uattardhona,+Uttar+Pradesh/19.950238,84.78207/@23.3671396,80.2594752,7z/data=!3m1!4b1!4m8!4m7!1m5!1m1!1s0x399be207e556dd5d:0x379527c1feb0fcbc!2m2!1d81.0648758!2d26.8912141!1m0?entry=ttu&g_ep=EgoyMDI1MDQzMC4xIKXMDSoASAFQAw%3D%3D",23.3671396,80.2594752
Odisha,Ganjam,IOCL - Sabita Charging Station,"Ground Floor, Bijipur Berhampur Rd Bada Khemundi Street",9937036131,Bharat AC001AC TYPE 2,12:00 AM - 11:59 PM,"https://www.google.com/maps/dir/Current+Location/19.304785,84.793313",19.304785,84.793313
Odisha,Ganjam,IOCL - Sivaram Charging Station,"Ground Floor, Radhanathpur, Brahmapur Andhapasora Road Near Mango Market",9438260944,Bharat AC001AC TYPE 2,12:00 AM - 11:59 PM,"https://www.google.com/maps/dir/Current+Location/19.315367,84.793008",19.315367,84.793008
Odisha,Ganjam,IOCL - Subhra Ksk Charging Station,"Ground Floor, Gopalpur Main Rd, Ramachandrapur Ankuli",8500000280,Bharat AC001AC TYPE 2,12:00 AM - 11:59 PM,"https://www.google.com/maps/dir/Uattardhona,+Uttar+Pradesh/19.52334,84.711168/@23.1210599,77.5347398,6z/data=!3m1!4b1!4m8!4m7!1m5!1m1!1s0x399be207e556dd5d:0x379527c1feb0fcbc!2m2!1d81.0648758!2d26.8912141!1m0?entry=ttu&g_ep=EgoyMDI1MDQzMC4xIKXMDSoASAFQAw%3D%3D",23.1210599,77.5347398
Odisha,Ganjam,IOCL - Kishore Charging Station,"Ground Floor, Goilundi, Brahmapur Baidyanathpur",9437071091,Bharat AC001AC TYPE 2,12:00 AM - 11:59 PM,"https://www.google.com/maps/dir/Current+Location/19.310722,84.805446",19.310722,84.805446
Odisha,Ganjam,HPCL - Satya Laxmi Charging Station,Dharakote,2222863900,AC TYPE 2,12:00 AM - 11:59 PM,"https://www.google.com/maps/dir/Uattardhona,+Uttar+Pradesh/19.645302,84.575419/@23.2470548,80.1355457,7z/data=!3m1!4b1!4m8!4m7!1m5!1m1!1s0x399be207e556dd5d:0x379527c1feb0fcbc!2m2!1d81.0648758!2d26.8912141!1m0?entry=ttu&g_ep=EgoyMDI1MDQzMC4xIKXMDSoASAFQAw%3D%3D",23.2470548,80.1355457
Odisha,Jagatsinghpur,Tata Power - Trupti Automotives Charging Station,"NH12 - Adj. Sarala Road, Tentulipada",9246419559,CCS-II,12:00 AM - 11:59 PM,"https://www.google.com/maps/dir/Current+Location/20.307243,86.320751",20.307243,86.320751
Odisha,Jagatsinghpur,HPCL - Raghunathpur Charging Station,BAZAR RAGHUNATHPUR BAZAR,8888823456,AC TYPE 2,12:00 AM - 11:59 PM,"https://www.google.com/maps/dir/Current+Location/20.359807,86.155374",20.359807,86.155374
Odisha,Jagatsinghpur,HPCL - Mahima Charging Station,37PJ 69C Jagatsinghpur,2222863900,AC TYPE 2,12:00 AM - 11:59 PM,"https://www.google.com/maps/dir/Current+Location/20.085584,86.280897",20.085584,86.280897
Odisha,Jagatsinghpur,HPCL - SHREE JAGANNATH Charging Station,"Near AXIS BANK SWA MILL CHHAKA, AT, Iswarpur",2222863900,AC TYPE 2,06:00 AM - 10:30 PM,"https://www.google.com/maps/dir/Current+Location/20.124437,86.28201",20.124437,86.28201
Odisha,Jajpur,Tata Power - Trupti Automotives Charging Station,"Mohammed Jamalpur , Keonjhar - Ghatgaon - Panikoili Rd",9246419559,CCS-IIBharat DC-001,12:00 AM - 11:59 PM,"https://www.google.com/maps/dir/Current+Location/20.9187324,86.216982",20.9187324,86.216982
Odisha,Jajpur,IOCL - Geeta Charging Charging Station,"SH 20, Khurunti",,Bharat AC001AC TYPE 2,06:00 AM - 10:00 PM,"https://www.google.com/maps/dir/Uattardhona,+Uttar+Pradesh/20.9657072,86.068802/@23.8392882,78.2738509,6z/data=!3m1!4b1!4m8!4m7!1m5!1m1!1s0x399be207e556dd5d:0x379527c1feb0fcbc!2m2!1d81.0648758!2d26.8912141!1m0?entry=ttu&g_ep=EgoyMDI1MDQzMC4xIKXMDSoASAFQAw%3D%3D",23.8392882,78.2738509
Odisha,Jajpur,Tata Power - Trupti Automotives Charging Station,"Duburi, Kalinga Nagar Tata Steel Area",9246419559,CCS-II,12:00 AM - 11:59 PM,"https://www.google.com/maps/dir/Current+Location/20.9502562,85.989753",20.9502562,85.989753
Odisha,Jajpur,Tata Power - Lalit Jena Site Charging Station,"Panikoili , Beside Prasanta Filling Station(BPCL), Plot 1632, Mouza, Baliposi, PO: Baliposi, PS: Sathipur",9246419559,CCS-II,12:00 AM - 11:59 PM,"https://www.google.com/maps/dir/Current+Location/20.923962,86.249458",20.923962,86.249458
Odisha,Jajpur,IOCL - Khandurai Charging Station,"Ground Floor, Kalinganagar, Baliapal, Danagadi Baragadia",9937322224,Bharat AC001AC TYPE 2,12:00 AM - 11:59 PM,"https://www.google.com/maps/dir/Current+Location/20.976762,86.002592",20.976762,86.002592
Odisha,Jajpur,IOCL - Mahapata Charging Station,"Ground Floor, Telibahali, Jakhapura Baragadia",9437440808,Bharat AC001AC TYPE 2,12:00 AM - 11:59 PM,"https://www.google.com/maps/dir/Uattardhona,+Uttar+Pradesh/20.932061,86.062174/@23.815763,77.9682377,6z/data=!3m1!4b1!4m8!4m7!1m5!1m1!1s0x399be207e556dd5d:0x379527c1feb0fcbc!2m2!1d81.0648758!2d26.8912141!1m0?entry=ttu&g_ep=EgoyMDI1MDQzMC4xIKXMDSoASAFQAw%3D%3D",23.815763,77.9682377
Odisha,Jajpur,IOCL - Sanatan Das Charging Station,"Ground Floor, Sujanpur Bhurunga",7538981984,Bharat AC001AC TYPE 2,12:00 AM - 11:59 PM,"https://www.google.com/maps/dir/Current+Location/20.772225,86.284819",20.772225,86.284819
Odisha,Jajpur,"Tata Power - Ginger Hotel, Nuagan (Private - Charger)","Ginger Hotel Kalinganagar SH 20, Nuagan",9223581898,CCS-IIAC TYPE 2,12:00 AM - 11:59 PM,"https://www.google.com/maps/dir/Current+Location/20.9791883,86.0273",20.9791883,86.0273
Odisha,Jharsuguda,IOCL - Mangalam Charging Station,"Ground Floor, Lakhanpur, Renkuli, Rengali Attabira",8895148403,Bharat AC001AC TYPE 2,12:00 AM - 11:59 PM,"https://www.google.com/maps/dir/Uattardhona,+Uttar+Pradesh/21.763834,83.770591/@24.3071672,79.8985763,7z/data=!3m1!4b1!4m8!4m7!1m5!1m1!1s0x399be207e556dd5d:0x379527c1feb0fcbc!2m2!1d81.0648758!2d26.8912141!1m0?entry=ttu&g_ep=EgoyMDI1MDQzMC4xIKXMDSoASAFQAw%3D%3D",24.3071672,79.8985763
Odisha,Jharsuguda,IOCL - Chakra Charging Station,"Ground Floor, Samasingha, Kolabira Jhirlapali",9861338779,Bharat AC001AC TYPE 2,12:00 AM - 11:59 PM,"https://www.google.com/maps/dir/Uattardhona,+Uttar+Pradesh/21.772842,84.180191/@24.3112501,79.9338381,7z/data=!3m1!4b1!4m8!4m7!1m5!1m1!1s0x399be207e556dd5d:0x379527c1feb0fcbc!2m2!1d81.0648758!2d26.8912141!1m0?entry=ttu&g_ep=EgoyMDI1MDQzMC4xIKXMDSoASAFQAw%3D%3D",24.3112501,79.9338381
Odisha,Jharsuguda,IOCL - Sri Baidyanath Charging Station,"Ground Floor, K M Road Panchapada",9437064263,Bharat AC001AC TYPE 2,12:00 AM - 11:59 PM,"https://www.google.com/maps/dir/Uattardhona,+Uttar+Pradesh/21.855791,84.00791/@24.3511744,79.8985793,7z/data=!3m1!4b1!4m8!4m7!1m5!1m1!1s0x399be207e556dd5d:0x379527c1feb0fcbc!2m2!1d81.0648758!2d26.8912141!1m0?entry=ttu&g_ep=EgoyMDI1MDQzMC4xIKXMDSoASAFQAw%3D%3D",24.3511744,79.8985793
Odisha,Jharsuguda,HPCL - Alaka Charging Station,Panchpada,2222863900,AC TYPE 2,12:00 AM - 11:59 PM,"https://www.google.com/maps/dir/Uattardhona,+Uttar+Pradesh/21.910753,84.014078/@24.3789267,79.8985813,7z/data=!3m1!4b1!4m8!4m7!1m5!1m1!1s0x399be207e556dd5d:0x379527c1feb0fcbc!2m2!1d81.0648758!2d26.8912141!1m0?entry=ttu&g_ep=EgoyMDI1MDQzMC4xIKXMDSoASAFQAw%3D%3D",24.3789267,79.8985813
Odisha,Jharsuguda,HPCL - R.S. Charging Station,Sarbahal,2222863900,Bharat AC001,12:00 AM - 11:59 PM,"https://www.google.com/maps/dir/Uattardhona,+Uttar+Pradesh/21.832215,84.012904/@24.3366246,79.8985783,7z/data=!3m1!4b1!4m8!4m7!1m5!1m1!1s0x399be207e556dd5d:0x379527c1feb0fcbc!2m2!1d81.0648758!2d26.8912141!1m0?entry=ttu&g_ep=EgoyMDI1MDQzMC4xIKXMDSoASAFQAw%3D%3D",24.3366246,79.8985783
Odisha,Kendrapara,IOCL - Jay Maa Sarala Charging Station,"Ground Floor, Mahakalpada, Marsaghai Balana",9437142548,Bharat AC001AC TYPE 2,12:00 AM - 11:59 PM,"https://www.google.com/maps/dir/Current+Location/20.418959,86.591261",20.418959,86.591261
Odisha,Kendrapara,IOCL - Sunakar Charging Station,Ground Floor Bhagwanpur Near Pulasi Womens College,9437272557,Bharat AC001AC TYPE 2,12:00 AM - 11:59 PM,"https://www.google.com/maps/dir/Current+Location/20.504563,86.418687",20.504563,86.418687
Odisha,Kendujhar,IOCL - Jairam Charging Station,"Ground Floor, Gopinathpur, Raisuan Bauripada",9437832046,Bharat AC001AC TYPE 2,12:00 AM - 11:59 PM,"https://www.google.com/maps/dir/Uattardhona,+Uttar+Pradesh/21.162958,85.468754/@24.0068878,80.5738602,7z/data=!3m1!4b1!4m8!4m7!1m5!1m1!1s0x399be207e556dd5d:0x379527c1feb0fcbc!2m2!1d81.0648758!2d26.8912141!1m0?entry=ttu&g_ep=EgoyMDI1MDQzMC4xIKXMDSoASAFQAw%3D%3D",24.0068878,80.5738602
Odisha,Kendujhar,IOCL - La Charging Station,"Ground Floor, Kamar, Balada Joda",9437005693,Bharat AC001AC TYPE 2,12:00 AM - 11:59 PM,"https://www.google.com/maps/dir/Uattardhona,+Uttar+Pradesh/22.014034,85.42939/@24.3561482,77.9632813,6z/data=!3m1!4b1!4m8!4m7!1m5!1m1!1s0x399be207e556dd5d:0x379527c1feb0fcbc!2m2!1d81.0648758!2d26.8912141!1m0?entry=ttu&g_ep=EgoyMDI1MDQzMC4xIKXMDSoASAFQAw%3D%3D",24.3561482,77.9632813
Odisha,Kendujhar,IOCL - General Cahrging Station,"Ground Floor, Keonjhar Court Road",9437054093,Bharat AC001AC TYPE 2,12:00 AM - 11:59 PM,"https://www.google.com/maps/dir/Uattardhona,+Uttar+Pradesh/21.629244,85.581488/@24.1710719,78.2187614,6z/data=!3m1!4b1!4m8!4m7!1m5!1m1!1s0x399be207e556dd5d:0x379527c1feb0fcbc!2m2!1d81.0648758!2d26.8912141!1m0?entry=ttu&g_ep=EgoyMDI1MDQzMC4xIKXMDSoASAFQAw%3D%3D",24.1710719,78.2187614
Odisha,Kendujhar,IOCL - Sab Charging Station,Ground Floor Barbil Bazar,9437200371,Bharat AC001AC TYPE 2,12:00 AM - 11:59 PM,"https://www.google.com/maps/dir/C-2%2F42,+Service+Rd,+Lucknow,+Uttar+Pradesh+226010/22.104455,85.379687/@24.4079432,78.2659178,6z/data=!3m1!4b1!4m8!4m7!1m5!1m1!1s0x399958aa82ac850d:0x391d4edb5b1d20d2!2m2!1d81.0737409!2d26.8912593!1m0?entry=ttu&g_ep=EgoyMDI1MDQzMC4xIKXMDSoASAFQAw%3D%3D",24.4079432,78.2659178
Odisha,Kendujhar,IOCL - Sakhee Charging Station,"Ground Floor, Champua Basudevpur Road Chamakpur Near Mulaniguda Basti",9437004011,Bharat AC001AC TYPE 2,12:00 AM - 11:59 PM,"https://www.google.com/maps/dir/C-2%2F42,+Service+Rd,+Lucknow,+Uttar+Pradesh+226010/22.066679,85.654232/@24.3884745,78.2188555,6z/data=!3m1!4b1!4m8!4m7!1m5!1m1!1s0x399958aa82ac850d:0x391d4edb5b1d20d2!2m2!1d81.0737409!2d26.8912593!1m0?entry=ttu&g_ep=EgoyMDI1MDQzMC4xIKXMDSoASAFQAw%3D%3D",24.3884745,78.2188555
Odisha,Khordha,Tata Power - Hotel Vivanta Patrapada (Private -Charger),"IDCO Plot No./1A Bhagbanpur Industrial Estate, DN Square Partapada",9246419559,CCS-IIAC TYPE 2,12:00 AM - 11:59 PM,"https://www.google.com/maps/dir/C-2%2F42,+Service+Rd,+Lucknow,+Uttar+Pradesh+226010/20.241402,85.759144/@23.4791624,78.6513537,6z/data=!3m1!4b1!4m8!4m7!1m5!1m1!1s0x399958aa82ac850d:0x391d4edb5b1d20d2!2m2!1d81.0737409!2d26.8912593!1m0?entry=ttu&g_ep=EgoyMDI1MDQzMC4xIKXMDSoASAFQAw%3D%3D",23.4791624,78.6513537
Odisha,Khordha,"Tata Power - Ginger Hotel, Nayapalli (Private - Charger)","Ginger Hotel Bhubaneshwar Opp. Nalco Headquarter,Jayadev Viha",9223581898,CCS-IIAC TYPE 2,12:00 AM - 11:59 PM,"https://www.google.com/maps/dir/Current+Location/20.3030321,85.823011",20.3030321,85.823011
Odisha,Khordha,Tata Power - Hotel Park Hotel ( Private - Charger ),"Fortune Park Sishmo, 86/A-1 Gautam Nagar",9246419559,CCS-IIBharat DC001 GB/TAC TYPE 2,12:00 AM - 11:59 PM,"https://www.google.com/maps/dir/Current+Location/20.258983,85.83971",20.258983,85.83971
Odisha,Khordha,Pandit JLN Marg,"111-Pandit Jawaharlal Nehru Marg, Unit-III Bhubaneswar",9223581898,AC TYPE 2,12:00 AM - 11:59 PM,"https://www.google.com/maps/dir/Current+Location/20.278541,85.834999",20.278541,85.834999
Odisha,Khordha,Tata Power - Technologies Khorda,"E/56, Infocity, Chandrasekharpur Industrial Area, Khorda, Bhubaneswar",9246419559,CCS-II,12:00 AM - 11:59 PM,"https://www.google.com/maps/dir/Current+Location/20.34433,85.80271",20.34433,85.80271
Odisha,Khordha,Tata Power - Sibaram Dash Charging Station,"Beside Nandi Filling Station , Kiajhari",9246419559,CCS-II,12:00 AM - 11:59 PM,"https://www.google.com/maps/dir/Current+Location/20.088998,85.565851",20.088998,85.565851
Odisha,Khordha,Tata Power - Trupti Enterprises Charging Station,"IDCO, Plot No 16, 17, 32&33 Bhagabanpur Industrial Area, Bhubaneswar",9246419559,CCS-IIBharat DC001 GB/TCHAdeMO,12:00 AM - 11:59 PM,"https://www.google.com/maps/dir/Current+Location/20.238165,85.756643",20.238165,85.756643
Odisha,Khordha,HPCL - Maruti Charging Station,Kuaput,2222863900,AC TYPE 2,06:00 AM - 10:00 PM,"https://www.google.com/maps/dir/C-2%2F42,+Service+Rd,+Lucknow,+Uttar+Pradesh+226010/20.293744,85.571457/@23.5725788,80.6477095,7z/data=!3m1!4b1!4m8!4m7!1m5!1m1!1s0x399958aa82ac850d:0x391d4edb5b1d20d2!2m2!1d81.0737409!2d26.8912593!1m0?entry=ttu&g_ep=EgoyMDI1MDQzMC4xIKXMDSoASAFQAw%3D%3D",23.5725788,80.6477095
Odisha,Khordha,HPCL - TAJ Charging Station,Dadhimachhagadia,2222863900,AC TYPE 2,12:00 AM - 11:59 PM,"https://www.google.com/maps/dir/C-2%2F42,+Service+Rd,+Lucknow,+Uttar+Pradesh+226010/20.121876,85.578898/@23.4803506,80.6510798,7z/data=!3m1!4b1!4m8!4m7!1m5!1m1!1s0x399958aa82ac850d:0x391d4edb5b1d20d2!2m2!1d81.0737409!2d26.8912593!1m0?entry=ttu&g_ep=EgoyMDI1MDQzMC4xIKXMDSoASAFQAw%3D%3D",23.4803506,80.6510798
Odisha,Khordha,Ather-Nayan Plaza Charging Station,TLC Office Rd,7676600900,,10:00 AM - 09:00 PM,"https://www.google.com/maps/dir/Current+Location/20.179749,85.611257",20.179749,85.611257
Odisha,Koraput,IOCL - Mukti Charging Station,"Ground Floor, Kundra Prasadraopeta",9938599033,Bharat AC001AC TYPE 2,12:00 AM - 11:59 PM,"https://www.google.com/maps/dir/C-2%2F42,+Service+Rd,+Lucknow,+Uttar+Pradesh+226010/18.923184,82.435997/@22.8197046,76.3963268,6z/data=!3m1!4b1!4m8!4m7!1m5!1m1!1s0x399958aa82ac850d:0x391d4edb5b1d20d2!2m2!1d81.0737409!2d26.8912593!1m0?entry=ttu&g_ep=EgoyMDI1MDQzMC4xIKXMDSoASAFQAw%3D%3D",22.8197046,76.3963268
Odisha,Koraput,IOCL - Prasanti Charging Station,"Ground Floor, NH 43, Bondaguda, Boriguma Anchala",9437000603,Bharat AC001AC TYPE 2,12:00 AM - 11:59 PM,"https://www.google.com/maps/dir/Current+Location/19.135875,82.315069",19.135875,82.315069
Odisha,Koraput,IOCL - Simahadri Appana Charging Station,"Ground Floor, Nandapur B Maliput",9437236299,,12:00 AM - 11:59 PM,"https://www.google.com/maps/dir/Current+Location/18.564696,82.734711",18.564696,82.734711
Odisha,Koraput,HPCL - PRINCESSES Charging Station,"QQH6 HJ, Duruguda",2222863900,AC TYPE 2,12:00 AM - 11:59 PM,"https://www.google.com/maps/dir/Current+Location/18.779008,82.761516",18.779008,82.761516
Odisha,Mayurbhanj,IOCL - Raja Charging Station,"Ground Floor, Narankhunta, Badasahi Balidiha",8895333999,Bharat AC001AC TYPE 2,12:00 AM - 11:59 PM,"https://www.google.com/maps/dir/C-2%2F42,+Service+Rd,+Lucknow,+Uttar+Pradesh+226010/21.824103,86.653117/@24.2616067,78.5576607,6z/data=!3m1!4b1!4m8!4m7!1m5!1m1!1s0x399958aa82ac850d:0x391d4edb5b1d20d2!2m2!1d81.0737409!2d26.8912593!1m0?entry=ttu&g_ep=EgoyMDI1MDQzMC4xIKXMDSoASAFQAw%3D%3D",24.2616067,78.5576607
Odisha,Mayurbhanj,AtherGrid Zone - Baripada Charging Station,"PLOT NO-90/523, SWAMPVILLA NH-5, BUDHI KHAMARI, MANCHABANDHA, Mayurbhanj",,,12:00 AM - 11:59 PM,"https://www.google.com/maps/dir/C-2%2F42,+Service+Rd,+Lucknow,+Uttar+Pradesh+226010/21.9028424,86.7556845/@24.2754054,78.5911762,6z/data=!3m1!4b1!4m8!4m7!1m5!1m1!1s0x399958aa82ac850d:0x391d4edb5b1d20d2!2m2!1d81.0737409!2d26.8912593!1m0?entry=ttu&g_ep=EgoyMDI1MDQzMC4xIKXMDSoASAFQAw%3D%3D",24.2754054,78.5911762
Odisha,Mayurbhanj,Ather-Baripada Charging Station,"Plot No-90/523, Swampvilla Nh-5, Budhi Khamari, Manchabandha, Mayurbhanj",7676600900,,10:00 AM - 09:00 PM,"https://www.google.com/maps/dir/C-2%2F42,+Service+Rd,+Lucknow,+Uttar+Pradesh+226010/21.90933,86.751265/@24.3106846,78.5625253,6z/data=!3m1!4b1!4m8!4m7!1m5!1m1!1s0x399958aa82ac850d:0x391d4edb5b1d20d2!2m2!1d81.0737409!2d26.8912593!1m0?entry=ttu&g_ep=EgoyMDI1MDQzMC4xIKXMDSoASAFQAw%3D%3D",24.3106846,78.5625253
Odisha,Nabarangpur,IOCL - Maa Sharada Charging Station,"Ground Floor, Kumli, Raighar Bharsundi",9777590955,Bharat AC001AC TYPE 2,12:00 AM - 11:59 PM,"https://www.google.com/maps/dir/C-2%2F42,+Service+Rd,+Lucknow,+Uttar+Pradesh+226010/19.885838,82.072306/@23.3688,78.9596942,7z/data=!3m1!4b1!4m8!4m7!1m5!1m1!1s0x399958aa82ac850d:0x391d4edb5b1d20d2!2m2!1d81.0737409!2d26.8912593!1m0?entry=ttu&g_ep=EgoyMDI1MDQzMC4xIKXMDSoASAFQAw%3D%3D",23.3688,78.9596942
Odisha,Nabarangpur,IOCL - Srinivasa Charging Station,"Ground Floor, Saraguda, B S Padar Dabugaon",9178511511,Bharat AC001AC TYPE 2,12:00 AM - 11:59 PM,"https://www.google.com/maps/dir/C-2%2F42,+Service+Rd,+Lucknow,+Uttar+Pradesh+226010/19.454169,82.395959/@23.0866938,76.380912,6z/data=!3m1!4b1!4m8!4m7!1m5!1m1!1s0x399958aa82ac850d:0x391d4edb5b1d20d2!2m2!1d81.0737409!2d26.8912593!1m0?entry=ttu&g_ep=EgoyMDI1MDQzMC4xIKXMDSoASAFQAw%3D%3D",23.0866938,76.380912
Odisha,Nayagarh,IOCL - Maa Bhanumati Charging Station,"Ground Floor, Hatiapalli, Khandapada Gania",9437116516,Bharat AC001AC TYPE 2,12:00 AM - 11:59 PM,"https://www.google.com/maps/dir/Current+Location/20.263271,85.172086",20.263271,85.172086
Odisha,Nayagarh,IOCL - Adarsh Filling Charging Station,Sikharpur On Sh 36 Tahasil Hinjlicut District Ganjam,,Bharat AC001AC TYPE 2,10:00 AM - 07:00 PM,"https://www.google.com/maps/dir/Current+Location/20.02811,85.097073",20.02811,85.097073
Odisha,Nuapada,IOCL - Sri S.N & Co. Charging Station,Ground Floor Raj Khariar Kalahandi,9178999998,Bharat AC001AC TYPE 2,12:00 AM - 11:59 PM,"https://www.google.com/maps/dir/Current+Location/20.287097,82.76217",20.287097,82.76217
Odisha,Puri,IOCL - Kokila Charging Station,"Ground Floor, Bhatabanda, Chanrapada Nimapara",9937036577,Bharat AC001AC TYPE 2,12:00 AM - 11:59 PM,"https://www.google.com/maps/dir/Current+Location/20.100501,85.989604",20.100501,85.989604
Odisha,Puri,Tata Power - Dion Automotive Charging Station,"Main Road Birharekrushnapur, Near Batamangala",9246419559,CCS-IIBharat DC001 GB/T,12:00 AM - 11:59 PM,"https://www.google.com/maps/dir/Current+Location/19.8374496,85.83659",19.8374496,85.83659
Odisha,Rayagada,IOCL - Om Vedmata Filling Charging Station,Ground Floor Siriguda,9438344892,Bharat AC001AC TYPE 2,12:00 AM - 11:59 PM,"https://www.google.com/maps/dir/Current+Location/19.412203,83.812213",19.412203,83.812213
Odisha,Rayagada,IOCL - Shri Jalaram Charging Station,"Ground Floor, Penta, J K Pur Antamoda",9437527297,Bharat AC001AC TYPE 2,12:00 AM - 11:59 PM,"https://www.google.com/maps/dir/C-2%2F42,+Service+Rd,+Lucknow,+Uttar+Pradesh+226010/19.264606,83.42096/@22.9921085,77.2373369,6z/data=!3m1!4b1!4m8!4m7!1m5!1m1!1s0x399958aa82ac850d:0x391d4edb5b1d20d2!2m2!1d81.0737409!2d26.8912593!1m0?entry=ttu&g_ep=EgoyMDI1MDQzMC4xIKXMDSoASAFQAw%3D%3D",22.9921085,77.2373369
Odisha,Rayagada,IOCL - Tara Tarini Charging Station,"Ground Floor, SH 6, Munikhole Agula",9438607770,Bharat AC001AC TYPE 2,12:00 AM - 11:59 PM,"https://www.google.com/maps/dir/Current+Location/19.633749,83.485452",19.633749,83.485452
Odisha,Rayagada,IOCL - Yeshvik Charging Station,"Ground Floor, Antamoda J K Pur Near Amalabhata Junction",9556346600,Bharat AC001AC TYPE 2,12:00 AM - 11:59 PM,"https://www.google.com/maps/dir/Current+Location/19.827617,83.460153",19.827617,83.460153
Odisha,Sambalpur,Tata Power - Lankeswari Motors Charging Station,"NH 6 - Gopalpalli Chowk , National Hwy, 06, Near Gopalpalli Chowk",18008332233,CCS-II,10:00 AM - 07:00 PM,"https://www.google.com/maps/dir/Current+Location/21.506596,83.955155",21.506596,83.955155
Odisha,Sambalpur,IOCL - Kuchinda Charging Station,"Ground Floor, Kundaposi Kuchinda Near New Bus Stand",9437655941,Bharat AC001AC TYPE 2,12:00 AM - 11:59 PM,"https://www.google.com/maps/dir/C-2%2F42,+Service+Rd,+Lucknow,+Uttar+Pradesh+226010/21.742797,84.34953/@24.2966527,80.0336204,7z/data=!3m1!4b1!4m8!4m7!1m5!1m1!1s0x399958aa82ac850d:0x391d4edb5b1d20d2!2m2!1d81.0737409!2d26.8912593!1m0?entry=ttu&g_ep=EgoyMDI1MDQzMC4xIKXMDSoASAFQAw%3D%3D",24.2966527,80.0336204
Odisha,Sambalpur,IOCL - Badhai Charging Station,"Ground Floor, Parmanpur Bishalkhinda",9438010341,Bharat AC001AC TYPE 2,12:00 AM - 11:59 PM,"https://www.google.com/maps/dir/C-2%2F42,+Service+Rd,+Lucknow,+Uttar+Pradesh+226010/21.53494,84.105154/@24.1928006,79.8985683,7z/data=!3m1!4b1!4m8!4m7!1m5!1m1!1s0x399958aa82ac850d:0x391d4edb5b1d20d2!2m2!1d81.0737409!2d26.8912593!1m0?entry=ttu&g_ep=EgoyMDI1MDQzMC4xIKXMDSoASAFQAw%3D%3D",24.1928006,79.8985683
Odisha,Sambalpur,IOCL - Energy Charging Station,"Ground Floor, Thelkoli Bishalkhinda Near Bhushan Steel",9040150722,Bharat AC001AC TYPE 2,12:00 AM - 11:59 PM,"https://www.google.com/maps/dir/C-2%2F42,+Service+Rd,+Lucknow,+Uttar+Pradesh+226010/21.76694,84.02191/@24.3087191,79.8985764,7z/data=!3m1!4b1!4m8!4m7!1m5!1m1!1s0x399958aa82ac850d:0x391d4edb5b1d20d2!2m2!1d81.0737409!2d26.8912593!1m0?entry=ttu&g_ep=EgoyMDI1MDQzMC4xIKXMDSoASAFQAw%3D%3D",24.3087191,79.8985764
Odisha,Sambalpur,IOCL - Sagar Charging Station,"Ground Floor, NH 6 Jamankira, Debananda Dimirikuda Debagarh",9668283333,Bharat AC001AC TYPE 2,12:00 AM - 11:59 PM,"https://www.google.com/maps/dir/C-2%2F42,+Service+Rd,+Lucknow,+Uttar+Pradesh+226010/21.537666,84.392859/@24.1938448,80.0429463,7z/data=!3m1!4b1!4m8!4m7!1m5!1m1!1s0x399958aa82ac850d:0x391d4edb5b1d20d2!2m2!1d81.0737409!2d26.8912593!1m0?entry=ttu&g_ep=EgoyMDI1MDQzMC4xIKXMDSoASAFQAw%3D%3D",24.1938448,80.0429463
Odisha,Sambalpur,Tata Power - Lankeswari Motors Pardhiapalli Charging Station,"Pardhiapalli, SH 10, Jharsuguda Road",9246419559,CCS-II,12:00 AM - 11:59 PM,"https://www.google.com/maps/dir/C-2%2F42,+Service+Rd,+Lucknow,+Uttar+Pradesh+226010/21.5106529,84.005841/@24.1806656,79.8985674,7z/data=!3m1!4b1!4m8!4m7!1m5!1m1!1s0x399958aa82ac850d:0x391d4edb5b1d20d2!2m2!1d81.0737409!2d26.8912593!1m0?entry=ttu&g_ep=EgoyMDI1MDQzMC4xIKXMDSoASAFQAw%3D%3D",24.1806656,79.8985674
Odisha,Sambalpur,Tata Power - TPWODL Technology Center Burla Charging Station,"Burla, Tentel Para, Sambalpur,",9246419559,CCS-IIBharat AC001Bharat DC001 GB/T,12:00 AM - 11:59 PM,"https://www.google.com/maps/dir/C-2%2F42,+Service+Rd,+Lucknow,+Uttar+Pradesh+226010/21.501004,83.891308/@24.171453,79.8985668,7z/data=!3m1!4b1!4m8!4m7!1m5!1m1!1s0x399958aa82ac850d:0x391d4edb5b1d20d2!2m2!1d81.0737409!2d26.8912593!1m0?entry=ttu&g_ep=EgoyMDI1MDQzMC4xIKXMDSoASAFQAw%3D%3D",24.171453,79.8985668
