State,District,Station Name,Address,Contact,Services,Final Timing,Map URL,Latitude,Longitude
Rajasthan,Ajmer,Tata Power - Mudgal Motors Charging Station,"Mudgal Motors, Jaipur Road Bypas, Parbatpura",8527000290,CCS-II,12:00 AM - 11:59 PM,"https://www.google.com/maps/dir/Lucknow,+Uttar+Pradesh/26.409926,74.661819/@26.7076325,72.5101803,6z/data=!3m1!4b1!4m8!4m7!1m5!1m1!1s0x399bfd991f32b16b:0x93ccba8909978be7!2m2!1d80.946166!2d26.8466937!1m0?entry=ttu&g_ep=EgoyMDI1MDQzMC4xIKXMDSoASAFQAw%3D%3D",26.7076325,72.5101803
Rajasthan,Ajmer,SSPL - Rani Bagh Resort charging station,"Rani Bagh Resort, N.H.8, By Pass Ajmer Road, Gayatri Nagar, Beawar",8070743743,CCS-II,12:00 AM - 11:59 PM,"https://www.google.com/maps/dir/Current+Location/26.125158,74.345852",26.125158,74.345852
Rajasthan,Ajmer,"Tata Power - GPS Automobile, Charging Station",G.P.S. Automobiles Pvt. Ltd. Express Highway Near Municipal Trenching Ground Parbatpura,18008332233,CCS-II,12:00 AM - 11:59 PM,"https://www.google.com/maps/dir/Current+Location/26.426766,74.681988",26.426766,74.681988
Rajasthan,Ajmer,Tata Power - Lotus Motors Charging Station,"16 Km Stone, Village Neharia Kishangarh",8527000290,CCS-II,12:00 AM - 11:59 PM,"https://www.google.com/maps/dir/Current+Location/26.610228,75.009925",26.610228,75.009925
Rajasthan,Ajmer,Tata Power - Bravia Hotel (Private -Charger),"Bravia Hotel, Vaishali Nagar, Near Urban Haat",8527000290,CCS-IIAC TYPE 2,12:00 AM - 11:59 PM,"https://www.google.com/maps/dir/Current+Location/26.487745,74.629316",26.487745,74.629316
Rajasthan,Ajmer,IOCL - Shree Dev Charging Station,"Ground Floor, Sikhrani Bijainagar",9680803940,Bharat AC001AC TYPE 2,12:00 AM - 11:59 PM,"https://www.google.com/maps/dir/Current+Location/25.977508,74.696117",25.977508,74.696117
Rajasthan,Ajmer,IOCL - B M Charging Station,Indian Oil Petrol Pump Kh.No.1477/11831381481/139 & 1479 Village Bagliya Tehsil Beawar,9880691077,Bharat AC001AC TYPE 2,12:00 AM - 11:59 PM,"https://www.google.com/maps/dir/Current+Location/25.885162,74.160647/@26.4443702,72.2568974,6z/data=!3m1!4b1?entry=ttu&g_ep=EgoyMDI1MDQzMC4xIKXMDSoASAFQAw%3D%3D",26.4443702,72.2568974
Rajasthan,Ajmer,Iocl - Jyoti Charging Station,"Ground Floor, Roopangarh, Dardoond Raghunath Pura",9414739773,Bharat AC001AC TYPE 2,12:00 AM - 11:59 PM,"https://www.google.com/maps/dir/Current+Location/26.807826,74.823376/@26.863473,72.5928743,6z/data=!3m1!4b1?entry=ttu&g_ep=EgoyMDI1MDQzMC4xIKXMDSoASAFQAw%3D%3D",26.863473,72.5928743
Rajasthan,Ajmer,IOCL - Khanpur Diesels Charging Station,Ground Floor Lohagal,9829072879,Bharat AC001AC TYPE 2,12:00 AM - 11:59 PM,"https://www.google.com/maps/dir/Current+Location/26.516401,74.657936/@26.7627216,72.5099371,6z/data=!3m1!4b1?entry=ttu&g_ep=EgoyMDI1MDQzMC4xIKXMDSoASAFQAw%3D%3D",26.7627216,72.5099371
Rajasthan,Ajmer,IOCL - Shri Dadhimathi Charging Station,"Ground Floor, Dhanma, Sarwar Barol",9636238537,Bharat AC001AC TYPE 2,12:00 AM - 11:59 PM,"https://www.google.com/maps/dir/Current+Location/26.399169,74.642261",26.399169,74.642261
Rajasthan,Ajmer,IOCL - Y M Charging Station,"Bijainagar Rd, Topas",7726080753,Bharat AC001AC TYPE 2,12:00 AM - 11:59 PM,"https://www.google.com/maps/dir/Current+Location/26.485675,74.603781",26.485675,74.603781
Rajasthan,Ajmer,IOCL - Star Kisan Seva Kendra Charging Station,"Ground Floor, Lasadiya, Masooda Hingonia",9950608513,Bharat AC001AC TYPE 2,10:00 AM - 07:00 PM,"https://www.google.com/maps/dir/Current+Location/26.096628,74.366507",26.096628,74.366507
Rajasthan,Ajmer,Tata Power - Hotels Ramada By Wyndham Ajmer (Private - Charger),"NH 8, Kishangarh Road, Gegal",8527000290,CCS-IIAC TYPE 2,12:00 AM - 11:59 PM,"https://www.google.com/maps/dir/Current+Location/26.54015,74.756742/@26.767932,72.5237954,6z/data=!3m1!4b1?entry=ttu&g_ep=EgoyMDI1MDQzMC4xIKXMDSoASAFQAw%3D%3D",26.767932,72.5237954
Rajasthan,Ajmer,Tata Power - Pratap Mahal Seleqtions (Private - Charger),Pushkar Bypass Road,9223581898,CCS-IIAC TYPE 2,12:00 AM - 11:59 PM,"https://www.google.com/maps/dir/Current+Location/26.554682,74.619082/@26.7627216,72.4673352,6z/data=!3m1!4b1?entry=ttu&g_ep=EgoyMDI1MDQzMC4xIKXMDSoASAFQAw%3D%3D",26.7627216,72.4673352
Rajasthan,Ajmer,MG - GPS Automobile Charging Station,G.P.S. Automobiles Pvt. Ltd. Parbatpura,8527000290,CCS-II,10:00 AM - 07:00 PM,"https://www.google.com/maps/dir/Current+Location/26.41114,74.662197",26.41114,74.662197
Rajasthan,Ajmer,IOCL - Om Rameshwaram Charging Station,"Ground Floor, Kekri, Salari Bogla",9784842628,Bharat AC001AC TYPE 2,12:00 AM - 11:59 PM,"https://www.google.com/maps/dir/Current+Location/25.978895,75.150525",25.978895,75.150525
Rajasthan,Ajmer,IOCL - Pareek Charging Station,"Khasra No 348/1, Patan, Kishangarh Tiloniya",9414210528,Bharat AC001AC TYPE 2,12:00 AM - 11:59 PM,"https://www.google.com/maps/dir/Current+Location/26.612431,74.978146",26.612431,74.978146
Rajasthan,Ajmer,IOCL -Mshsd Durga Charging Station,Lamba,8002333555,Bharat AC001,09:00 AM - 10:00 PM,"https://www.google.com/maps/dir/Current+Location/26.409074,75.007178/@26.7092444,72.5997755,6z/data=!3m1!4b1?entry=ttu&g_ep=EgoyMDI1MDQzMC4xIKXMDSoASAFQAw%3D%3D",26.7092444,72.5997755
Rajasthan,Ajmer,HPCL - Hsd Om Sai Charging Station,"A P Colony, Gaya",,AC TYPE 2,10:00 AM - 07:00 PM,"https://www.google.com/maps/dir/Lucknow,+Uttar+Pradesh/24.782571,84.982407/@25.7809517,80.3687315,7z/data=!3m1!4b1!4m8!4m7!1m5!1m1!1s0x399bfd991f32b16b:0x93ccba8909978be7!2m2!1d80.946166!2d26.8466937!1m0?entry=ttu&g_ep=EgoyMDI1MDQzMC4xIKXMDSoASAFQAw%3D%3D",25.7809517,80.3687315
Rajasthan,Ajmer,Ather-Naika Charging Station,"Unit E ,Deepmala Residency , Civil Lines , Opposite Savitri College , Ajmer , Rajasthan",7676600900,,10:00 AM - 09:00 PM,"https://www.google.com/maps/dir/Current+Location/26.472499,74.63772",26.472499,74.63772
Rajasthan,Ajmer,Ather-Hero Electric Charging Station,"Near SBI Bank, Nasirabad Road, Adarsh Nagar",7676600900,,10:00 AM - 09:00 PM,"https://www.google.com/maps/dir/Current+Location/26.423841,74.650799/@26.7076325,72.5065736,6z/data=!3m1!4b1?entry=ttu&g_ep=EgoyMDI1MDQzMC4xIKXMDSoASAFQAw%3D%3D",26.7076325,72.5065736
Rajasthan,Ajmer,Ather-Naika Automobiles Charging Station,N-1 B B.K Kaul Nagar Near Queen'S Mary Girls School,7676600900,,10:00 AM - 09:00 PM,"https://www.google.com/maps/dir/Current+Location/26.468084,74.605584",26.468084,74.605584
Rajasthan,Ajmer,Ather-Hotel Royal Amar Charging Station,"NH-8, NH 8, Jaipur-Kishangarh Expy",7676600900,,10:00 AM - 09:00 PM,"https://www.google.com/maps/dir/Current+Location/26.593569,74.927236/@26.7988738,72.5974224,6z/data=!3m1!4b1?entry=ttu&g_ep=EgoyMDI1MDQzMC4xIKXMDSoASAFQAw%3D%3D",26.7988738,72.5974224
Rajasthan,Alwar,Tata Power - Hotel Shemron (Private -Charger),"Hotel Shemron, NH-8 Shahjahanpur, Neemrana, Shahjahanpur",18008332233,CCS-IIAC TYPE 2,12:00 AM - 11:59 PM,"https://www.google.com/maps/dir/Current+Location/28.008946,76.464646",28.008946,76.464646
Rajasthan,Alwar,Tata Power - Classic Motors Charging Station,"Nagina Plaza, Adjacent To M/S Amarnath Gupta BPCL Petrol Pump, Old Delhi Road",8527000290,CCS-II,12:00 AM - 11:59 PM,"https://www.google.com/maps/dir/Lucknow,+Uttar+Pradesh/27.557332,76.634788/@27.0147247,76.1437565,7z/data=!3m1!4b1!4m8!4m7!1m5!1m1!1s0x399bfd991f32b16b:0x93ccba8909978be7!2m2!1d80.946166!2d26.8466937!1m0?entry=ttu&g_ep=EgoyMDI1MDQzMC4xIKXMDSoASAFQAw%3D%3D",27.0147247,76.1437565
Rajasthan,Alwar,VEVC - 77 Charging Station,"EV Charging Station Parking(LHS) Delhi - Mumbai, Exp",9711829983,CCS-II,12:00 AM - 11:00 PM,"https://www.google.com/maps/dir/Current+Location/27.28314,76.773899",27.28314,76.773899
Rajasthan,Alwar,IOCL - Babuji Roopram,Indian Oil Petrol Pump Village Chimravali Sikh Laxmangarh To Malakhera Road,6377536583,Bharat AC001AC TYPE 2,12:00 AM - 11:59 PM,"https://www.google.com/maps/dir/Current+Location/27.359587,76.78156",27.359587,76.78156
Rajasthan,Alwar,IOCL - Shri Narsingh Charging Station,"Ground Floor, Bahadurpur Patti Adarsh Colony",7042606110,Bharat AC001AC TYPE 2,12:00 AM - 11:59 PM,"https://www.google.com/maps/dir/Current+Location/27.666638,76.724831/@27.2077949,76.1953363,7z/data=!3m1!4b1?entry=ttu&g_ep=EgoyMDI1MDQzMC4xIKXMDSoASAFQAw%3D%3D",27.2077949,76.1953363
Rajasthan,Alwar,Tata Power - Cygnett Charging Station,"Near Samola Circle, Alwar- Rajgarh Bypass 200 Feet Road, Roopbas",8527000290,CCS-II,12:00 AM - 11:59 PM,"https://www.google.com/maps/dir/Current+Location/27.532402,76.624216",27.532402,76.624216
Rajasthan,Alwar,Ather-Alwar Charging Station,Plot No 15 Baraf Khana Road,8066465757,,11:59 PM - 12:00 AM,"https://www.google.com/maps/dir/Current+Location/27.565148,76.61739",27.565148,76.61739
Rajasthan,Alwar,Ather-Modern Charging Station,"Khsara No 22-23 , Old Delhi Road, Diwakari Mod , Hyundai Workshop , Delhi Road",8066465757,,11:59 PM - 12:00 AM,"https://www.google.com/maps/dir/Lucknow,+Uttar+Pradesh/27.549229,76.656306/@27.1495336,76.1594376,7z/data=!3m1!4b1!4m8!4m7!1m5!1m1!1s0x399bfdc773d906f9:0x25b128b029613aa3!2m2!1d80.8986502!2d26.7862676!1m0?entry=ttu&g_ep=EgoyMDI1MDQzMC4xIKXMDSoASAFQAw%3D%3D",27.1495336,76.1594376
Rajasthan,Banswara,IOCL - Mayur Charging Station,Ground Floor Chidiyawasa,9414818277,Bharat AC001AC TYPE 2,12:00 AM - 11:59 PM,"https://www.google.com/maps/dir/Current+Location/23.603182,74.380171",23.603182,74.380171
Rajasthan,Banswara,IOCL - Gurviraj Charging Station,"Ground Floor, Garhi Anjana",9982873010,Bharat AC001AC TYPE 2,12:00 AM - 11:59 PM,"https://www.google.com/maps/dir/Current+Location/23.495263,74.03781",23.495263,74.03781
Rajasthan,Banswara,IOCL - Jodhraj Charging Station,"Ground Floor, Ghatol, Bhagora Chhari",9414684050,Bharat AC001AC TYPE 2,12:00 AM - 11:59 PM,"https://www.google.com/maps/dir/Current+Location/23.592221,74.199171",23.592221,74.199171
Rajasthan,Banswara,IOCL - Yogeshwari Charging Station,"Ground Floor, Andheshwar, Jalimpura Sajjangarh",7976614031,Bharat AC001AC TYPE 2,12:00 AM - 11:59 PM,"https://www.google.com/maps/dir/Current+Location/23.378137,74.326924",23.378137,74.326924
Rajasthan,Baran,IOCL - Maa Krishnai Annapurna Charging Station,"Ground Floor, Asnawar, Kishanganj Relawan",9079941884,Bharat AC001AC TYPE 2,12:00 AM - 11:59 PM,"https://www.google.com/maps/dir/Current+Location/25.227233,76.680701",25.227233,76.680701
Rajasthan,Baran,VSG - Charging Point,9 Barani,9462837009,Wall (BS1363),10:00 AM - 07:00 PM,"https://www.google.com/maps/dir/Current+Location/29.114877,75.189549",29.114877,75.189549
Rajasthan,Baran,HPCL - Reyansh Charging Station,"89Q3 72P, Unnamed Road, Udpuriya",2222863900,AC TYPE 2,12:00 AM - 11:59 PM,"https://www.google.com/maps/dir/Current+Location/25.339105,76.352421/@25.9040828,75.9442593,7z/data=!3m1!4b1?entry=ttu&g_ep=EgoyMDI1MDQzMC4xIKXMDSoASAFQAw%3D%3D",25.9040828,75.9442593
Rajasthan,Barmer,IOCL - Shree Gurukripa Charging Station,"Khasra No 1750/1272, Badnava, Thob Pachpadra",9783040630,Bharat AC001AC TYPE 2,12:00 AM - 11:59 PM,"https://www.google.com/maps/dir/Current+Location/25.924908,72.259375",25.924908,72.259375
Rajasthan,Barmer,IOCL - Shree Jagdamba Charging Station,"Khasra No 609/143, Bagundi, Pachpadra Akadara",7567545949,Bharat AC001AC TYPE 2,12:00 AM - 11:59 PM,"https://www.google.com/maps/dir/Current+Location/25.924715,72.259246",25.924715,72.259246
Rajasthan,Barmer,IOCL - Meera Charging Station,"Ground Floor, Badnava, Newai Pachpadra",9928257253,Bharat AC001AC TYPE 2,12:00 AM - 11:59 PM,"https://www.google.com/maps/dir/Current+Location/25.925256,72.257272",25.925256,72.257272
Rajasthan,Barmer,IOCL - Aman Oils Charging Station,Village - Sagrani Tehsil - Ramsar,,Bharat AC001AC TYPE 2,12:00 AM - 11:59 PM,"https://www.google.com/maps/dir/Current+Location/25.743356,70.75941",25.743356,70.75941
Rajasthan,Barmer,IOCL - Baba Ramdev Filling Charging Station,Village - Durgapura Tehsil - Pachpadra,,Bharat AC001AC TYPE 2,12:00 AM - 11:59 PM,"https://www.google.com/maps/dir/Current+Location/26.19769,72.390023",26.19769,72.390023
Rajasthan,Barmer,IOCL - Balaji Charging Station,Village - Ramsar Tehsil - Ramsar,,Bharat AC001AC TYPE 2,12:00 AM - 11:59 PM,"https://www.google.com/maps/dir/Current+Location/25.728387,70.874863",25.728387,70.874863
Rajasthan,Barmer,IOCL - Bhagwati Charging Station,Khasra No.1227/1217 Village Thapan Tehsil- Siwana,,Bharat AC001AC TYPE 2,12:00 AM - 11:59 PM,"https://www.google.com/maps/dir/Current+Location/25.682612,72.302102",25.682612,72.302102
Rajasthan,Barmer,IOCL - Punjaram Charging Station,"Khasra No 906/840, Gadra Road Adarsh Basti",9928779216,Bharat AC001AC TYPE 2,12:00 AM - 11:59 PM,"https://www.google.com/maps/dir/Current+Location/25.741866,70.639695",25.741866,70.639695
Rajasthan,Barmer,IOCL - Shri Aalam Charging Station,"Khasra No 1360/4, Kartia, Rathoro Ki Dhani Gudamalani",9413307980,Bharat AC001AC TYPE 2,12:00 AM - 11:59 PM,"https://www.google.com/maps/dir/Current+Location/25.201212,71.713496",25.201212,71.713496
Rajasthan,Barmer,IOCL - Jai Shri Ram Charging Station,"Khasra No 668/19, Pachpadra Bhimarlai Station",9166722499,Bharat AC001AC TYPE 2,12:00 AM - 11:59 PM,"https://www.google.com/maps/dir/Current+Location/25.827689,71.966865",25.827689,71.966865
Rajasthan,Barmer,IOCL - V S Charging Station,"Ground Floor, Pachpadra Jasol",9374354477,Bharat AC001AC TYPE 2,12:00 AM - 11:59 PM,"https://www.google.com/maps/dir/Current+Location/25.815317,72.207091",25.815317,72.207091
Rajasthan,Barmer,IOCL - Vardhman Charging Station,"Khasra No 1701/651, Chauhtan Dhanau Rd",9414529865,Bharat AC001AC TYPE 2,12:00 AM - 11:59 PM,"https://www.google.com/maps/dir/Current+Location/25.486475,71.075148",25.486475,71.075148
Rajasthan,Barmer,Tata Power - Hotel Dana Pani Refinery Road(Private - Charger),"REFINERY ROAD, Pachpadra, Sambhra",8527000290,CCS-II,12:00 AM - 11:59 PM,"https://www.google.com/maps/dir/Current+Location/25.931808,72.228348",25.931808,72.228348
Rajasthan,Barmer,HPCL - SHREE MAHADEV Charging Station,"V773 5M9, Jodhpur - Balotra Road, Moongra",9166434711,AC TYPE 2,12:00 AM - 11:59 PM,"https://www.google.com/maps/dir/Current+Location/25.862914,72.254229",25.862914,72.254229
Rajasthan,Bharatpur,Tata Power - Hotel Amritara Chandra Mahal Haveli(Private -Charger),"Jaipur -Agra Road, Paharsar, Nadbai",9223581898,CCS-IIAC TYPE 2,12:00 AM - 11:59 PM,"https://www.google.com/maps/dir/Current+Location/27.166271,77.287426",27.166271,77.287426
Rajasthan,Bharatpur,Tata Power - Brijwheel Automobiles Charging Station Station,Opposite Jain Mandir Sewar Road,8527000290,CCS-II,12:00 AM - 11:59 PM,"https://www.google.com/maps/dir/Current+Location/27.200848,77.461258",27.200848,77.461258
Rajasthan,Bharatpur,IOCL - Shekhawati Charging Station,"Ground Floor, NH 11, Agra Road Mallah Bharatpur",9413310025,Bharat DC-001,12:00 AM - 11:59 PM,"https://www.google.com/maps/dir/Current+Location/26.853444,75.760354",26.853444,75.760354
Rajasthan,Bharatpur,REIL - Maderna Charging Station,"NH 11, Jaipur Agra Road, Jhalatal Amoli",9414026163,Bharat AC001,12:00 AM - 11:59 PM,"https://www.google.com/maps/dir/Current+Location/27.1014,77.0989",27.1014,77.0989
Rajasthan,Bharatpur,IOCL - Bansal Charging Station,Ground Floor Jatoli Ghana,9414225743,Bharat AC001,12:00 AM - 11:59 PM,"https://www.google.com/maps/dir/Current+Location/27.196215,77.523766",27.196215,77.523766
Rajasthan,Bharatpur,Statiq - Hotel Sunbird Charging Station,"Ghana Road, Hotel Parking Area, Near Saras Chaur, Bharatpur",9414209767,Bharat AC001Bharat DC-001,12:00 AM - 11:59 PM,"https://www.google.com/maps/dir/Current+Location/27.2052169,77.510356",27.2052169,77.510356
Rajasthan,Bharatpur,Statiq - JS Four Wheel Motors Bharatpur Charging Station,"Near Entrance Gate, Mahindra Showroom, Kumher Road, Borai",9625374409,Bharat AC001Bharat DC-001,09:00 AM - 06:30 PM,"https://www.google.com/maps/dir/Current+Location/27.2721541,77.4329244",27.2721541,77.4329244
Rajasthan,Bhilwara,"Tata Power - Somila Garden, Bhilwara-Udaipur Highway","AARAJI No. 135/1k/3, Bhilwara-UDAIPUR HIGHWAY, NH-758, SAHADA CHOURAHA",,CCS-IIAC TYPE 2,12:00 AM - 11:59 PM,"https://www.google.com/maps/dir/Current+Location/25.18918,74.241105",25.18918,74.241105
Rajasthan,Bhilwara,Statiq - Shree Jee Food Square Charging Station,"NH 27, Keshar Ganj Chowaraha, Bijoliya",8070743743,CCS-II,12:00 AM - 11:59 PM,"https://www.google.com/maps/dir/Current+Location/25.151589,75.322997",25.151589,75.322997
Rajasthan,Bhilwara,IOCL - Shree Devnarayan Charging Station,"Ground Floor, Barliyas, Narsingh Ka Jhopra Kotri",9414686825,Bharat AC001AC TYPE 2,12:00 AM - 11:59 PM,"https://www.google.com/maps/dir/Current+Location/25.47943,74.980756",25.47943,74.980756
Rajasthan,Bhilwara,IOCL - Arihant Petroleum Charging Station,Village-Jassaji Ka Khera Tehsil-Mandalgarh,,Bharat AC001AC TYPE 2,12:00 AM - 11:59 PM,"https://www.google.com/maps/dir/Current+Location/25.340874,75.185977",25.340874,75.185977
Rajasthan,Bhilwara,IOCL - Nanak Petroleum Charging Station,Village-Bhand Ki Bawdi,,Bharat AC001AC TYPE 2,10:00 AM - 07:00 PM,"https://www.google.com/maps/dir/Current+Location/25.436838,74.587068",25.436838,74.587068
Rajasthan,Bhilwara,IOCL - Garg Petroleums (Ms Site) Charging Station,Ground Floor Azad Nagar Near Railway Phatak,9414113131,Bharat AC001AC TYPE 2,12:00 AM - 11:59 PM,"https://www.google.com/maps/dir/Current+Location/25.342066,74.631505",25.342066,74.631505
Rajasthan,Bhilwara,IOCL - Gora Charging Station,"Ground Floor, Shahpura Kekri Rd, Bachhkhera Amli Kalan",9001690399,Bharat AC001AC TYPE 2,12:00 AM - 11:59 PM,"https://www.google.com/maps/dir/Current+Location/25.720851,75.039867",25.720851,75.039867
Rajasthan,Bhilwara,IOCL - Tatiwal Filling Station Charging Station,Nh-79 Taswariya Badla,9414113741,Bharat AC001AC TYPE 2,12:00 AM - 11:59 PM,"https://www.google.com/maps/dir/Current+Location/25.833043,74.610227",25.833043,74.610227
Rajasthan,Bhilwara,IOCL - Rishabh Charging Station,"NH 79, National Highway Mandal Chouraha",9413052811,Bharat AC001AC TYPE 2,12:00 AM - 11:59 PM,"https://www.google.com/maps/dir/Current+Location/25.437404,74.630187",25.437404,74.630187
Rajasthan,Bhilwara,Tata Power - Yash Motors Charging Station,"Yash Motors, Subhash Nagar , 3, Ajmer Rd, Subhash Nagar",18008332233,CCS-II,12:00 AM - 11:59 PM,"https://www.google.com/maps/dir/Current+Location/25.381882,74.619996",25.381882,74.619996
Rajasthan,Bhilwara,Tata Power - Yash Motors Charging Station,"Gaurav Path, Ajmer Rd, Bhilwara, Rajasthan",7045178897,CCS-II,Closed Now,"https://www.google.com/maps/dir/Current+Location/25.419347,74.610327",25.419347,74.610327
Rajasthan,Bhilwara,HPCL - Kalka Charging Station,"Mahuakalan, BADA MAHUA",2222863900,AC TYPE 2,12:00 AM - 11:59 PM,"https://www.google.com/maps/dir/Current+Location/25.465117,74.786106",25.465117,74.786106
Rajasthan,Bhilwara,Statiq-Hotel Rajhans Charging Station-National Highway 48,"Irans Chouraha Rayla, National Highway 48, NH48",8066465757,AC TYPE 2,12:00 AM - 12:00 PM,"https://www.google.com/maps/dir/Current+Location/26.896056,78.17154544",26.896056,78.17154544
Rajasthan,Bikaner,IOCL - Mansi Charging Station,"Ground Floor, Bagadsar, Chak 2 BSM Bajju",8447582108,Bharat AC001AC TYPE 2,12:00 AM - 11:59 PM,"https://www.google.com/maps/dir/Current+Location/27.935711,72.510164",27.935711,72.510164
Rajasthan,Bikaner,IOCL - Radhe Madhav Charging Station,"Khasra No 461/2050, Rajasar, Bhatiyan, Chattargarh Akasar",7734955333,Bharat AC001AC TYPE 2,12:00 AM - 11:59 PM,"https://www.google.com/maps/dir/Current+Location/28.502693,73.351336",28.502693,73.351336
Rajasthan,Bikaner,IOCL - Shree Ram Charging Station,"Ground Floor, Barsinghsar Ambasar",9414648837,Bharat AC001AC TYPE 2,12:00 AM - 11:59 PM,"https://www.google.com/maps/dir/Current+Location/28.025986,73.320142",28.025986,73.320142
Rajasthan,Bikaner,IOCL - Godara Charging Station,"Khasra No 1860/1308, Roda, Bandhra Nokha",9413105154,Bharat AC001AC TYPE 2,12:00 AM - 11:59 PM,"https://www.google.com/maps/dir/Current+Location/27.541909,73.392763",27.541909,73.392763
Rajasthan,Bikaner,IOCL - Gurukripa Charging Station,"Ground Floor, Bhamatsar, Sinjguru Nokha",8502970668,Bharat AC001AC TYPE 2,12:00 AM - 11:59 PM,"https://www.google.com/maps/dir/Current+Location/27.708565,73.496028",27.708565,73.496028
Rajasthan,Bikaner,IOCL - Kiran Charging Station,"Ground Floor, Birdhwal Road, Bagadsar, Bajju, Chak 4 Kolayat",9873796074,Bharat AC001AC TYPE 2,12:00 AM - 11:59 PM,"https://www.google.com/maps/dir/V3QF%2BWCX,+Uattardhona,+Uttar+Pradesh+226010/27.836003,null/@26.8897381,80.9914687,12z/data=!3m1!4b1!4m8!4m7!1m5!1m1!1s0x399be2006c71e24d:0x5989857f6b7db633!2m2!1d81.0738702!2d26.889762!1m0?entry=ttu&g_ep=EgoyMDI1MDQzMC4xIKXMDSoASAFQAw%3D%3D",26.8897381,80.9914687
Rajasthan,Bikaner,"Tata Power - Dunac Automobiles, Jaisalmer Road","Dunac Automobiles Pvt Ltd, Jetharam Dudipetrol Pump, Jaisalmer Road, Bikaner",8527000290,CCS-II,12:00 AM - 11:59 PM,"https://www.google.com/maps/dir/Current+Location/28.024175,73.290791",28.024175,73.290791
Rajasthan,Bikaner,HPCL - Nahar Singh Charging Station,"8F7G PVP, Suratgarh - Bikaner Rd, Kisturiya",18008332233,AC TYPE 2,12:00 AM - 11:59 PM,"https://www.google.com/maps/dir/Current+Location/28.314488,73.477108",28.314488,73.477108
Rajasthan,Bikaner,HPCL - Krishna and Co Charging Station,"NH62, Bikasar",18008332233,AC TYPE 2,10:00 AM - 07:00 PM,"https://www.google.com/maps/dir/Current+Location/27.572202,73.45719",27.572202,73.45719
Rajasthan,Bikaner,Tata Power - Hotel And Resort BICHHIWARA (Private - Charger),Nh 12 Near Chhaila Pulyia Road Charkara Nokra,8527000290,CCS-II,06:00 AM - 10:00 PM,"https://www.google.com/maps/dir/Current+Location/27.461405,73.514146",27.461405,73.514146
Rajasthan,Bikaner,HPCL - Nitya Karan Charging Station,"NH-11 Jaipur, Road, Seruna",2222863900,AC TYPE 2,12:00 AM - 11:59 PM,"https://www.google.com/maps/dir/Current+Location/28.08226,73.691139",28.08226,73.691139
Rajasthan,Bikaner,Ather-Jawa Yezdi Showroom Charging Station,"Nagpal Complex, Opp DRM Office,",7676600900,,10:00 AM - 09:00 PM,"https://www.google.com/maps/dir/Current+Location/28.015882,73.319161",28.015882,73.319161
Rajasthan,Bikaner,Ather-Bikaner Charging Station,"Near Ram Dev Tent House, Rani Bazar",7676600900,,10:00 AM - 09:00 PM,"https://www.google.com/maps/dir/Current+Location/28.007805,73.314772",28.007805,73.314772
Rajasthan,Bikaner,Ather-Bikaner Charging Station,"Behind Choptra Katla , Rani Bazar",7676600900,,10:00 AM - 09:00 PM,"https://www.google.com/maps/dir/Current+Location/28.006306,73.32065",28.006306,73.32065
Rajasthan,Bikaner,Ather-Jagdamba Food Corner Charging Station,"Main Market, Pawan Puri",,,10:00 AM - 09:00 PM,"https://www.google.com/maps/dir/Current+Location/27.999413,73.333512",27.999413,73.333512
Rajasthan,Bikaner,Ather-Dalmiya Grid Point Dalmiya Grid Point,"JNV Murti Cir, Sector 5, Jai Narayan Vyas Colony",7676600900,,10:00 AM - 09:00 PM,"https://www.google.com/maps/dir/Current+Location/28.010691,73.347964",28.010691,73.347964
Rajasthan,Bikaner,Ather-Choudhary Tyres Charging Station,"Shop No.6 , Ganganagar Road, Before Chandra Petrol Pump",7676600900,,10:00 AM - 09:00 PM,"https://www.google.com/maps/dir/Current+Location/28.063757,73.338558",28.063757,73.338558
Rajasthan,Bundi,IOCL - Seth Lekhraj Charging Station,"Ground Floor, Bundi, Rampuria Ajeta",9929389088,Bharat AC001AC TYPE 2,12:00 AM - 11:59 PM,"https://www.google.com/maps/dir/Current+Location/25.555346,75.449728",25.555346,75.449728
Rajasthan,Bundi,IOCL - Govindam Charging Station,"Khasra No 4391/4379, NH 148D, Bara Nayagaon Abar",9414256607,Bharat AC001AC TYPE 2,12:00 AM - 11:59 PM,"https://www.google.com/maps/dir/Current+Location/25.514156,75.536287/@26.0412549,72.9436078,6z/data=!3m1!4b1?entry=ttu&g_ep=EgoyMDI1MDQzMC4xIKXMDSoASAFQAw%3D%3D",26.0412549,72.9436078
Rajasthan,Bundi,IOCL - Jdm Charging Station,"Ground Floor, Parana, Amli Talera",7568488888,Bharat AC001AC TYPE 2,12:00 AM - 11:59 PM,"https://www.google.com/maps/dir/Current+Location/26.255932,75.951179/@26.6328434,73.1878222,6z/data=!3m1!4b1?entry=ttu&g_ep=EgoyMDI1MDQzMC4xIKXMDSoASAFQAw%3D%3D",26.6328434,73.1878222
Rajasthan,Bundi,IOCL - Khandelwal Charging Station,"Ground Floor, Amli Badakhera",9602481313,Bharat AC001AC TYPE 2,12:00 AM - 11:59 PM,"https://www.google.com/maps/dir/Current+Location/25.609367,76.235828/@26.2057672,73.3193711,6z/data=!3m1!4b1?entry=ttu&g_ep=EgoyMDI1MDQzMC4xIKXMDSoASAFQAw%3D%3D",26.2057672,73.3193711
Rajasthan,Bundi,IOCL - LPBohra Charging Station,"Ground Floor, Bachola Nainwa",9252262000,Bharat AC001AC TYPE 2,12:00 AM - 11:59 PM,"https://www.google.com/maps/dir/Current+Location/25.772367,75.856295/@26.3913887,73.1684109,6z/data=!3m1!4b1?entry=ttu&g_ep=EgoyMDI1MDQzMC4xIKXMDSoASAFQAw%3D%3D",26.3913887,73.1684109
Rajasthan,Bundi,IOCL - Maa Lakhod Charging Station,"Kh No 3374/2958, Dablana Hindoli",9828366707,Bharat AC001AC TYPE 2,12:00 AM - 11:59 PM,"https://www.google.com/maps/dir/Current+Location/25.587878,75.643364/@26.0412549,73.0643183,6z/data=!3m1!4b1?entry=ttu&g_ep=EgoyMDI1MDQzMC4xIKXMDSoASAFQAw%3D%3D",26.0412549,73.0643183
Rajasthan,Bundi,HPCL - HINDOLI Charging Station,"NH 52, Hindoli Byp, Hindoli",2222863900,AC TYPE 2,12:00 AM - 11:59 PM,"https://www.google.com/maps/dir/V3QF%2BWCX,+Uattardhona,+Uttar+Pradesh+226010/25.568386,75.503429/@26.0412549,72.9911922,6z/data=!3m1!4b1!4m8!4m7!1m5!1m1!1s0x399be2006c71e24d:0x5989857f6b7db633!2m2!1d81.0738702!2d26.889762!1m0?entry=ttu&g_ep=EgoyMDI1MDQzMC4xIKXMDSoASAFQAw%3D%3D",26.0412549,72.9911922
Rajasthan,Bundi,HPCL - Sanvi Charging Station,"Near Tunnel, Jaipur Road, NH52",2222863900,AC TYPE 2,12:00 AM - 11:59 PM,"https://www.google.com/maps/dir/Current+Location/25.449517,75.604185/@26.0412549,73.0048916,6z/data=!3m1!4b1?entry=ttu&g_ep=EgoyMDI1MDQzMC4xIKXMDSoASAFQAw%3D%3D",26.0412549,73.0048916
Rajasthan,Bundi,Ather-Bundi Charging Station,"Khushi Automobiles , Near Truck Union, Dev Narayan Mandir Ke Pas",8066465757,,11:59 PM - 12:00 AM,"https://www.google.com/maps/dir/Current+Location/25.437964,75.629839/@26.0412549,73.0048916,6z/data=!3m1!4b1?entry=ttu&g_ep=EgoyMDI1MDQzMC4xIKXMDSoASAFQAw%3D%3D",26.0412549,73.0048916
Rajasthan,Chittorgarh,Tata Power - Yash motors Charging Station,"Opposite Meera Smiriti Sansthan Gram Ochari, Nimbahera Road, Ochari",8527000290,CCS-II,12:00 AM - 11:59 PM,"https://www.google.com/maps/dir/Current+Location/24.8276645,74.627293",24.8276645,74.627293
Rajasthan,Chittorgarh,SSPL - Chitrakoot Resorts and Restaurant Charging Station,"Diamond Circle National Highway 76 -79, Udaipur Village Road, Rithola",8070743743,CCS-II,12:00 AM - 11:59 PM,"https://www.google.com/maps/dir/Current+Location/24.838724,74.577269",24.838724,74.577269
Rajasthan,Chittorgarh,IOCL - Mandfiya Sanwaliyaji Charging Station,"Ground Floor, Bhadesar, Mandphiya Asawara",9602650193,Bharat AC001AC TYPE 2,12:00 AM - 11:59 PM,"https://www.google.com/maps/dir/V3QF%2BWCX,+Uattardhona,+Uttar+Pradesh+226010/24.687222,74.502338/@25.8463708,72.4951054,6z/data=!3m1!4b1!4m8!4m7!1m5!1m1!1s0x399be2006c71e24d:0x5989857f6b7db633!2m2!1d81.0738702!2d26.889762!1m0?entry=ttu&g_ep=EgoyMDI1MDQzMC4xIKXMDSoASAFQAw%3D%3D",25.8463708,72.4951054
Rajasthan,Chittorgarh,IOCL - NAKODA Charging Station,"Jk Cement, Kailashnagar Nimbahera",9461420236,Bharat AC001AC TYPE 2,10:00 AM - 07:00 PM,"https://www.google.com/maps/dir/Current+Location/24.695823,74.666605",24.695823,74.666605
Rajasthan,Chittorgarh,Aavra Maa Charging Station,Sadari(Ranawato Ki Sadari) Tehsil-Bhupalsagar,9929464472,Bharat AC001AC TYPE 2,12:00 AM - 11:59 PM,"https://www.google.com/maps/dir/Current+Location/25.132314,73.452527",25.132314,73.452527
Rajasthan,Chittorgarh,Choudhary Charging Station,Nimbahera To Chittorgarh Road Laxmipura,9413048279,Bharat AC001AC TYPE 2,12:00 AM - 11:59 PM,"https://www.google.com/maps/dir/V3QF%2BWCX,+Uattardhona,+Uttar+Pradesh+226010/25.022377,74.612384/@25.989629,72.5305868,6z/data=!3m1!4b1!4m8!4m7!1m5!1m1!1s0x399be2006c71e24d:0x5989857f6b7db633!2m2!1d81.0738702!2d26.889762!1m0?entry=ttu&g_ep=EgoyMDI1MDQzMC4xIKXMDSoASAFQAw%3D%3D",25.989629,72.5305868
Rajasthan,Chittorgarh,IOCL - Sanjeevani Charging Station,"Ground Floor, Jalampura Bansen",9829243223,Bharat AC001AC TYPE 2,12:00 AM - 11:59 PM,"https://www.google.com/maps/dir/Current+Location/24.805785,74.628968",24.805785,74.628968
Rajasthan,Chittorgarh,IOCL - Keshav Charging Station,"Ground Floor, Napania, Mangalwar",9414159215,Bharat AC001AC TYPE 2,12:00 AM - 11:59 PM,"https://www.google.com/maps/dir/Current+Location/24.679713,74.344129",24.679713,74.344129
Rajasthan,Chittorgarh,IOCL - Top Value Charging Station,"79, Bhilwara Rd, RIICO Industrial Area",9414110429,Bharat AC001AC TYPE 2,10:00 AM - 07:00 PM,"https://www.google.com/maps/dir/V3QF%2BWCX,+Uattardhona,+Uttar+Pradesh+226010/25.054363,74.621898/@26.0131978,72.5401111,6z/data=!3m1!4b1!4m8!4m7!1m5!1m1!1s0x399be2006c71e24d:0x5989857f6b7db633!2m2!1d81.0738702!2d26.889762!1m0?entry=ttu&g_ep=EgoyMDI1MDQzMC4xIKXMDSoASAFQAw%3D%3D",26.0131978,72.5401111
Rajasthan,Chittorgarh,IOCL - Mangrol Charging Station,"Ground Floor, JK Cement Plant Rd, Mangrol Badolighata",9829221251,Bharat AC001AC TYPE 2,12:00 AM - 11:59 PM,"https://www.google.com/maps/dir/Current+Location/24.686757,74.667357",24.686757,74.667357
Rajasthan,Churu,Tata Power - Jeet Desert Resorts (Private - Charger),"Bikaner Agra Rd RAJALDESAR NH 11, Jorawarpura",8527000290,CCS-IIAC TYPE 2,12:00 AM - 11:59 PM,"https://www.google.com/maps/dir/V3QF%2BWCX,+Uattardhona,+Uttar+Pradesh+226010/28.042469,74.41825/@27.3107966,72.4534316,6z/data=!3m1!4b1!4m8!4m7!1m5!1m1!1s0x399be2006c71e24d:0x5989857f6b7db633!2m2!1d81.0738702!2d26.889762!1m0?entry=ttu&g_ep=EgoyMDI1MDQzMC4xIKXMDSoASAFQAw%3D%3D",27.3107966,72.4534316
Rajasthan,Churu,IOCL - Sadiram And Sons Charging Station,"Ground Floor, NH 52, Asalkheri Dhadhar",9636777805,Bharat AC001AC TYPE 2,12:00 AM - 11:59 PM,"https://www.google.com/maps/dir/V3QF%2BWCX,+Uattardhona,+Uttar+Pradesh+226010/28.324047,75.040095/@27.4543953,72.7415568,6z/data=!3m1!4b1!4m8!4m7!1m5!1m1!1s0x399be2006c71e24d:0x5989857f6b7db633!2m2!1d81.0738702!2d26.889762!1m0?entry=ttu&g_ep=EgoyMDI1MDQzMC4xIKXMDSoASAFQAw%3D%3D",27.4543953,72.7415568
Rajasthan,Churu,HPCL - OM Charging Station,"Nyama, NH 58, Sujangarh",8949570838,Bharat AC001,12:00 AM - 11:59 PM,"https://www.google.com/maps/dir/Current+Location/27.71369,74.44657",27.71369,74.44657
Rajasthan,Dausa,Tata Power - Hotel Umaid Lake Palace (Private - Charger),"Karuna Enterprises Umaid Lake Palace, Village Post Kalakho, NH 21 District Dausa",8527000290,CCS-IIAC TYPE 2,12:00 AM - 11:59 PM,"https://www.google.com/maps/dir/V3QF%2BWCX,+Uattardhona,+Uttar+Pradesh+226010/26.912864,76.466964/@26.9596231,76.1288838,7z/data=!4m8!4m7!1m5!1m1!1s0x399be2006c71e24d:0x5989857f6b7db633!2m2!1d81.0738702!2d26.889762!1m0?entry=ttu&g_ep=EgoyMDI1MDQzMC4xIKXMDSoASAFQAw%3D%3D",26.9596231,76.1288838
Rajasthan,Dausa,IOCL - Arham Charging Station,Goojar Seemla,8002333555,Bharat AC001AC TYPE 2,10:00 AM - 07:00 PM,"https://www.google.com/maps/dir/Current+Location/26.968391,76.751528",26.968391,76.751528
Rajasthan,Dausa,IOCL - Narayan Charging Station,"Plot No 2, Dausa Lalsot Road, Khohra Kalan Aluda",8890385163,Bharat AC001AC TYPE 2,12:00 AM - 11:59 PM,"https://www.google.com/maps/dir/Current+Location/26.878906,76.336851",26.878906,76.336851
Rajasthan,Dausa,IOCL - Rajasthan Charging Station,"Ground Floor, Madhopur Road, Bagdi, Lalsot, Sawai Bilona Kalan",9414035611,Bharat AC001AC TYPE 2,12:00 AM - 11:59 PM,"https://www.google.com/maps/dir/V3QF%2BWCX,+Uattardhona,+Uttar+Pradesh+226010/26.555567,76.326435/@26.8066479,76.0547996,7z/data=!4m8!4m7!1m5!1m1!1s0x399be2006c71e24d:0x5989857f6b7db633!2m2!1d81.0738702!2d26.889762!1m0?entry=ttu&g_ep=EgoyMDI1MDQzMC4xIKXMDSoASAFQAw%3D%3D",26.8066479,76.0547996
Rajasthan,Dausa,IOCL - Ganpati Charging Station,"Ground Floor, Kaulana Bandi Kui Bypass",9001055698,Bharat AC001AC TYPE 2,12:00 AM - 11:59 PM,"https://www.google.com/maps/dir/V3QF%2BWCX,+Uattardhona,+Uttar+Pradesh+226010/27.073342,76.557464/@26.9596231,76.168917,7z/data=!4m8!4m7!1m5!1m1!1s0x399be2006c71e24d:0x5989857f6b7db633!2m2!1d81.0738702!2d26.889762!1m0?entry=ttu&g_ep=EgoyMDI1MDQzMC4xIKXMDSoASAFQAw%3D%3D",26.9596231,76.168917
Rajasthan,Dausa,REIL - Prakash Charging Station,Indian Oil Petrol Pump Nh-11 Jaipur Agra Road Sikandra,9314242200,Bharat AC001,12:00 AM - 11:59 PM,"https://www.google.com/maps/dir/V3QF%2BWCX,+Uattardhona,+Uttar+Pradesh+226010/26.947958,76.5763/@26.9596231,76.1823103,7z/data=!4m8!4m7!1m5!1m1!1s0x399be2006c71e24d:0x5989857f6b7db633!2m2!1d81.0738702!2d26.889762!1m0?entry=ttu&g_ep=EgoyMDI1MDQzMC4xIKXMDSoASAFQAw%3D%3D",26.9596231,76.1823103
Rajasthan,Dausa,IOCL - Sd Shishram Gill Charging Station,"Ground Floor, Maujpur, NH 11, Jaipur Agra Rd Balahedi",9784812311,Bharat DC-001,12:00 AM - 11:59 PM,"https://www.google.com/maps/dir/Current+Location/27.028888,76.890966",27.028888,76.890966
Rajasthan,Dausa,IOCL - Mohan Charging Station,"Ground Floor, Jaipur Agra Road, NH 11 Sikandra",9314242200,Bharat DC-001,12:00 AM - 11:59 PM,"https://www.google.com/maps/dir/V3QF%2BWCX,+Uattardhona,+Uttar+Pradesh+226010/26.94762,76.577782/@26.9596231,76.1846399,7z/data=!4m8!4m7!1m5!1m1!1s0x399be2006c71e24d:0x5989857f6b7db633!2m2!1d81.0738702!2d26.889762!1m0?entry=ttu&g_ep=EgoyMDI1MDQzMC4xIKXMDSoASAFQAw%3D%3D",26.9596231,76.1846399
Rajasthan,Dholpur,Statiq-Marwar Motors Charging Station-G.T. Road RTDC,"G.T. Road, Entrance Gate, Dholpu",8066465757,AC TYPE 2,12:00 AM - 12:00 PM,"https://www.google.com/maps/dir/V3QF%2BWCX,+Uattardhona,+Uttar+Pradesh+226010/26.717774,77.8957426/@26.8657115,76.8425072,7z/data=!3m1!4b1!4m8!4m7!1m5!1m1!1s0x399be2006c71e24d:0x5989857f6b7db633!2m2!1d81.0738702!2d26.889762!1m0?entry=ttu&g_ep=EgoyMDI1MDQzMC4xIKXMDSoASAFQAw%3D%3D",26.8657115,76.8425072
Rajasthan,Dungarpur,Hakimi Motors Charging Station,"Okinawa Scooter Dealer, Near Panchal Petrol Pump, Banswara Road, Jethana Rural, Sagwara",7340499523,Socket3PIN,10:00 AM - 07:00 PM,"https://www.google.com/maps/dir/V3QF%2BWCX,+Uattardhona,+Uttar+Pradesh+226010/22.4959,75.1545/@24.6003012,72.8242806,6z/data=!3m1!4b1!4m8!4m7!1m5!1m1!1s0x399be2006c71e24d:0x5989857f6b7db633!2m2!1d81.0738702!2d26.889762!1m0?entry=ttu&g_ep=EgoyMDI1MDQzMC4xIKXMDSoASAFQAw%3D%3D",24.6003012,72.8242806
Rajasthan,Dungarpur,SSPL - Hotel Neel Giri ( Private Charger ),"NH 48, Near B.P Petrol Pump, Bichhiwara",9115569433,CCS-II,12:00 AM - 11:59 PM,"https://www.google.com/maps/dir/Current+Location/23.784813,73.521536",23.784813,73.521536
Rajasthan,Dungarpur,IOCL - Bhairavji Charging Station,"SH 32, Dungarpur, Rayki",7014818262,Bharat AC001AC TYPE 2,12:00 AM - 11:59 PM,"https://www.google.com/maps/dir/Current+Location/23.920434,74.119126",23.920434,74.119126
Rajasthan,Dungarpur,IOCL - Durga Charging Station,Bhachariya Sagwara-Dungarur Road,9414290806,Bharat AC001AC TYPE 2,12:00 AM - 11:59 PM,"https://www.google.com/maps/dir/V3QF%2BWCX,+Uattardhona,+Uttar+Pradesh+226010/23.721773,73.909367/@25.2204618,72.0400794,6z/data=!4m8!4m7!1m5!1m1!1s0x399be2006c71e24d:0x5989857f6b7db633!2m2!1d81.0738702!2d26.889762!1m0?entry=ttu&g_ep=EgoyMDI1MDQzMC4xIKXMDSoASAFQAw%3D%3D",25.2204618,72.0400794
Rajasthan,Dungarpur,IOCL - Sanmati Charging Station,"Ground Floor, Richa Aspur",9929858363,Bharat AC001AC TYPE 2,12:00 AM - 11:59 PM,"https://www.google.com/maps/dir/Current+Location/23.949311,74.079738",23.949311,74.079738
Rajasthan,Dungarpur,Tata Power - SR Charging Stations-Hotel Neel Giri ( Private Charger ),"NH 48, Bichhiwara, Dungarpur, Rajasthan",8070743743,CCS-II,12:00 AM - 11:59 PM,"https://www.google.com/maps/dir/Current+Location/23.785199,73.51994",23.785199,73.51994
Rajasthan,Dungarpur,SSPL - Shri Dungargarh Charging Station,National Highway No 11 Shri Dungargarh Bikaner,,CCS-II,12:00 AM - 11:59 PM,"https://www.google.com/maps/dir/Current+Location/28.091316095046,74.04418106446656",28.0913161,74.04418106
Rajasthan,Hanumangarh,PlugShare - Bharat Sainik Charging Point,"C/O. Amardeep Pub Sr Sec School, Bharat Sainik Sansthan, Near Central Bus Stand",9414503010,Wall (BS1363),10:00 AM - 07:00 PM,"https://www.google.com/maps/dir/Current+Location/28.62446,77.219818",28.62446,77.219818
Rajasthan,Hanumangarh,IOCL - Ramjas Saharan Charging Station,"Plot No 147/336, 18 Ndr 15 Kwd",9799611851,Bharat AC001AC TYPE 2,12:00 AM - 11:59 PM,"https://www.google.com/maps/dir/V3QF%2BWCX,+Uattardhona,+Uttar+Pradesh+226010/29.419733,74.337935/@28.0467882,72.4136262,6z/data=!4m8!4m7!1m5!1m1!1s0x399be2006c71e24d:0x5989857f6b7db633!2m2!1d81.0738702!2d26.889762!1m0?entry=ttu&g_ep=EgoyMDI1MDQzMC4xIKXMDSoASAFQAw%3D%3D",28.0467882,72.4136262
Rajasthan,Hanumangarh,IOCL - Ramdev Charging Station,"Ground Floor, 19 Hmh Theri Amarpura",9460120374,Bharat AC001AC TYPE 2,12:00 AM - 11:59 PM,"https://www.google.com/maps/dir/V3QF%2BWCX,+Uattardhona,+Uttar+Pradesh+226010/29.55108,74.3043/@28.0659131,72.39556,6z/data=!4m8!4m7!1m5!1m1!1s0x399be2006c71e24d:0x5989857f6b7db633!2m2!1d81.0738702!2d26.889762!1m0?entry=ttu&g_ep=EgoyMDI1MDQzMC4xIKXMDSoASAFQAw%3D%3D",28.0659131,72.39556
Rajasthan,Hanumangarh,IOCL - Shankar Charging Station,Plot No A/11 Transport Nagar,9828217817,Bharat AC001AC TYPE 2,12:00 AM - 11:59 PM,"https://www.google.com/maps/dir/V3QF%2BWCX,+Uattardhona,+Uttar+Pradesh+226010/29.642145,74.310444/@28.1718776,72.3999344,6z/data=!3m1!4b1!4m8!4m7!1m5!1m1!1s0x399be2006c71e24d:0x5989857f6b7db633!2m2!1d81.0738702!2d26.889762!1m0?entry=ttu&g_ep=EgoyMDI1MDQzMC4xIKXMDSoASAFQAw%3D%3D",28.1718776,72.3999344
Rajasthan,Hanumangarh,IOCL - Shanti Charging Station,"Ground Floor, 20 HMH Amarpura Theri",8950426045,Bharat AC001AC TYPE 2,12:00 AM - 11:59 PM,"https://www.google.com/maps/dir/Current+Location/29.533554,74.281355",29.533554,74.281355
Rajasthan,Hanumangarh,IOCL - Choudhary Petro Care Charging Station,P.N.142/318143/318M.N.8&9K.N.6&1 Village 14K.S.P.,,Bharat AC001AC TYPE 2,12:00 AM - 11:59 PM,"https://www.google.com/maps/dir/Current+Location/29.579745,74.328773",29.579745,74.328773
Rajasthan,Hanumangarh,IOCL - Laxman Ram Bhambhu Charging Station,"Ground Floor, 14 NDR, Rahit 15 Kwd",9414512797,Bharat AC001AC TYPE 2,12:00 AM - 11:59 PM,"https://www.google.com/maps/dir/V3QF%2BWCX,+Uattardhona,+Uttar+Pradesh+226010/29.380381,74.369735/@27.969802,72.4294891,6z/data=!4m8!4m7!1m5!1m1!1s0x399be2006c71e24d:0x5989857f6b7db633!2m2!1d81.0738702!2d26.889762!1m0?entry=ttu&g_ep=EgoyMDI1MDQzMC4xIKXMDSoASAFQAw%3D%3D",27.969802,72.4294891
Rajasthan,Jaipur,Indian Oil - Charging Station,NH-8 Village Lakher Tehsil Amer Amber Jaipur District,8094500005,DCGBT,10:00 AM - 07:00 PM,"https://www.google.com/maps/dir/Current+Location/26.872586,75.861959",26.872586,75.861959
Rajasthan,Jaipur,Electric - Vehicle Charging Station,55-57 Vishwa Nagar Near Sanganer Road Near Gujar Ki Thadi,8107330033,IEC 60309AC TYPE 1,10:00 AM - 07:00 PM,"https://www.google.com/maps/dir/V3QF%2BWCX,+Uattardhona,+Uttar+Pradesh+226010/25.7309,76.9182/@26.211806,76.3547944,7z/data=!3m1!4b1!4m8!4m7!1m5!1m1!1s0x399be2006c71e24d:0x5989857f6b7db633!2m2!1d81.0738702!2d26.889762!1m0?entry=ttu&g_ep=EgoyMDI1MDQzMC4xIKXMDSoASAFQAw%3D%3D",26.211806,76.3547944
Rajasthan,Jaipur,Electric - Ambuja Charging Station,"D 59, Gujarat Ambuja, Complex, Anand Circle, Niwaru Road, Jhotwara Industrial Area",9829052710,IEC 60309,10:00 AM - 07:00 PM,"https://www.google.com/maps/dir/V3QF%2BWCX,+Uattardhona,+Uttar+Pradesh+226010/26.4499,74.6399/@26.7285196,72.562236,6z/data=!3m1!4b1!4m8!4m7!1m5!1m1!1s0x399be2006c71e24d:0x5989857f6b7db633!2m2!1d81.0738702!2d26.889762!1m0?entry=ttu&g_ep=EgoyMDI1MDQzMC4xIKXMDSoASAFQAw%3D%3D",26.7285196,72.562236
Rajasthan,Jaipur,IOCL - Milestone Charging Station,"NH-8, Milestone Newalpura, Shahpura",8094444070,GBT,10:00 AM - 07:00 PM,"https://www.google.com/maps/dir/Current+Location/28.2416,75.6499",28.2416,75.6499
Rajasthan,Jaipur,Statiq - KS Motors Pvt Ltd Charging Station,National Motor Building MI Road,8824887261,IEC 60309,10:00 AM - 07:00 PM,"https://www.google.com/maps/dir/V3QF%2BWCX,+Uattardhona,+Uttar+Pradesh+226010/26.9124,75.7873/@26.9051427,73.1377393,6z/data=!4m8!4m7!1m5!1m1!1s0x399be2006c71e24d:0x5989857f6b7db633!2m2!1d81.0738702!2d26.889762!1m0?entry=ttu&g_ep=EgoyMDI1MDQzMC4xIKXMDSoASAFQAw%3D%3D",26.9051427,73.1377393
Rajasthan,Jaipur,Electric - Vehicle Charging Station,"Sitapura Industrial Area, Shahpura",9929095071,IEC 60309,10:00 AM - 07:00 PM,"https://www.google.com/maps/dir/V3QF%2BWCX,+Uattardhona,+Uttar+Pradesh+226010/25.7309,76.9182/@26.211806,76.3604802,7z/data=!3m1!4b1!4m8!4m7!1m5!1m1!1s0x399be2006c71e24d:0x5989857f6b7db633!2m2!1d81.0738702!2d26.889762!1m0?entry=ttu&g_ep=EgoyMDI1MDQzMC4xIKXMDSoASAFQAw%3D%3D",26.211806,76.3604802
Rajasthan,Jaipur,Machiwal Kirana General Store - Charging Station,"Shop No Shopping Center, 10, Janata Colony Road, Janta Colony",1412613417,IEC 60309,10:00 AM - 07:00 PM,"https://www.google.com/maps/dir/Current+Location/26.8932,76.3375",26.8932,76.3375
Rajasthan,Jaipur,Tata Power - Akar Fourwheel Charging Station,Plot No 68 Jhotwara Industrial Area,7045179427,CCS-II,10:00 AM - 07:00 PM,"https://www.google.com/maps/dir/V3QF%2BWCX,+Uattardhona,+Uttar+Pradesh+226010/26.9142719,75.75332/@26.9051427,73.1204825,6z/data=!3m1!4b1!4m8!4m7!1m5!1m1!1s0x399be2006c71e24d:0x5989857f6b7db633!2m2!1d81.0738702!2d26.889762!1m0?entry=ttu&g_ep=EgoyMDI1MDQzMC4xIKXMDSoASAFQAw%3D%3D",26.9051427,73.1204825
Rajasthan,Jaipur,Hyundai - Electric Vehicle Charging Station,"7, Sansar Chandra Road, Near Government Hostel",8387388813,CCS-IIAC PLUG POINTDCAC TYPE 2,10:00 AM - 07:00 PM,"https://www.google.com/maps/dir/V3QF%2BWCX,+Uattardhona,+Uttar+Pradesh+226010/26.9124,75.7873/@26.9051427,73.1377393,6z/data=!3m1!4b1!4m8!4m7!1m5!1m1!1s0x399be2006c71e24d:0x5989857f6b7db633!2m2!1d81.0738702!2d26.889762!1m0?entry=ttu&g_ep=EgoyMDI1MDQzMC4xIKXMDSoASAFQAw%3D%3D",26.9051427,73.1377393
Rajasthan,Jaipur,Mahindra - Pratap Plaza Charging Station,"B 1, Sector 5, Near Pratap Plaza, Pratap Nagar, Tank Road",9829311173,AC PLUG POINTIEC 60309,10:00 AM - 07:00 PM,"https://www.google.com/maps/dir/V3QF%2BWCX,+Uattardhona,+Uttar+Pradesh+226010/26.6035,75.9436/@26.8040683,73.2158229,6z/data=!3m1!4b1!4m8!4m7!1m5!1m1!1s0x399be2006c71e24d:0x5989857f6b7db633!2m2!1d81.0738702!2d26.889762!1m0?entry=ttu&g_ep=EgoyMDI1MDQzMC4xIKXMDSoASAFQAw%3D%3D",26.8040683,73.2158229
Rajasthan,Jaipur,MG - Blackstone Charging station,"Hotel The Blackstone, A-20 Ganesh Nagar, 200 Feet Road, Muhana Mandi Road, Mansarovar, Jaipur, Rajasthan, 302029",8574050505,AC PLUG POINT3PINAC TYPE 2Socket,10:00 AM - 07:00 PM,"https://www.google.com/maps/dir/V3QF%2BWCX,+Uattardhona,+Uttar+Pradesh+226010/26.831616,75.795928/@26.9051427,73.1410738,6z/data=!3m1!4b1!4m8!4m7!1m5!1m1!1s0x399be2006c71e24d:0x5989857f6b7db633!2m2!1d81.0738702!2d26.889762!1m0?entry=ttu&g_ep=EgoyMDI1MDQzMC4xIKXMDSoASAFQAw%3D%3D",26.9051427,73.1410738
Rajasthan,Jaipur,Tata Power - Points By Sheraton,"No. 1, City Square, Vasundhara Colony, Tonk Road, Jaipur, Rajasthan",,CCS-IICHAdeMOAC TYPE 2,12:00 AM - 11:59 PM,"https://www.google.com/maps/dir/V3QF%2BWCX,+Uattardhona,+Uttar+Pradesh+226010/26.864375,75.795929/@26.9051427,73.1420421,6z/data=!3m1!4b1!4m8!4m7!1m5!1m1!1s0x399be2006c71e24d:0x5989857f6b7db633!2m2!1d81.0738702!2d26.889762!1m0?entry=ttu&g_ep=EgoyMDI1MDQzMC4xIKXMDSoASAFQAw%3D%3D",26.9051427,73.1420421
Rajasthan,Jaipur,Tata Power - Shree Shyam Motors,"E(5) B, Road No 1C, VKI Area, Jaipur",,CCS-II,12:00 AM - 11:59 PM,"https://www.google.com/maps/dir/V3QF%2BWCX,+Uattardhona,+Uttar+Pradesh+226010/26.972278,75.777317/@26.9051427,73.1290688,6z/data=!3m1!4b1!4m8!4m7!1m5!1m1!1s0x399be2006c71e24d:0x5989857f6b7db633!2m2!1d81.0738702!2d26.889762!1m0?entry=ttu&g_ep=EgoyMDI1MDQzMC4xIKXMDSoASAFQAw%3D%3D",26.9051427,73.1290688
Rajasthan,Jaipur,"Tata Power - Taj Jai Mahal Palace, Civil Lines (Private - Charger)","Jacob Rd, Civil Lines",9223581898,CCS-IIAC TYPE 2,12:00 AM - 11:59 PM,"https://www.google.com/maps/dir/V3QF%2BWCX,+Uattardhona,+Uttar+Pradesh+226010/26.912438,75.786515/@26.9051427,73.1363804,6z/data=!4m8!4m7!1m5!1m1!1s0x399be2006c71e24d:0x5989857f6b7db633!2m2!1d81.0738702!2d26.889762!1m0?entry=ttu&g_ep=EgoyMDI1MDQzMC4xIKXMDSoASAFQAw%3D%3D",26.9051427,73.1363804
Rajasthan,Jaipur,Ginger Hotel (Private - Charger),"Grand Geejgarh, Hawa Sadak, Sudarshanpura, Civil Lines",1414666333,CCS-IIAC TYPE 2,12:00 AM - 11:59 PM,"https://www.google.com/maps/dir/V3QF%2BWCX,+Uattardhona,+Uttar+Pradesh+226010/26.9062541,75.7835639/@26.9051427,73.1349972,6z/data=!4m8!4m7!1m5!1m1!1s0x399be2006c71e24d:0x5989857f6b7db633!2m2!1d81.0738702!2d26.889762!1m0?entry=ttu&g_ep=EgoyMDI1MDQzMC4xIKXMDSoASAFQAw%3D%3D",26.9051427,73.1349972
Rajasthan,Jaipur,Tata Power - Hotel Click Collection (Private - Charger),"Plot No 1, 2, Opposite Polovictory Cinema, Sindhi Camp",9223581898,CCS-II,12:00 AM - 11:59 PM,"https://www.google.com/maps/dir/V3QF%2BWCX,+Uattardhona,+Uttar+Pradesh+226010/26.9206169,75.797517/@26.9051427,73.1426314,6z/data=!4m8!4m7!1m5!1m1!1s0x399be2006c71e24d:0x5989857f6b7db633!2m2!1d81.0738702!2d26.889762!1m0?entry=ttu&g_ep=EgoyMDI1MDQzMC4xIKXMDSoASAFQAw%3D%3D",26.9051427,73.1426314
Rajasthan,Jaipur,Tata Power - Hotel Zone By The Park (Private - Charger),"D-65A, Madho Singh Road, Sindhi Colony, Bani Park",9246419559,AC TYPE 2,12:00 AM - 11:59 PM,"https://www.google.com/maps/dir/V3QF%2BWCX,+Uattardhona,+Uttar+Pradesh+226010/26.933114,75.794106/@26.9051427,73.1402031,6z/data=!3m1!4b1!4m8!4m7!1m5!1m1!1s0x399be2006c71e24d:0x5989857f6b7db633!2m2!1d81.0738702!2d26.889762!1m0?entry=ttu&g_ep=EgoyMDI1MDQzMC4xIKXMDSoASAFQAw%3D%3D",26.9051427,73.1402031
Rajasthan,Jaipur,Tata Power - Hotels Ramada By Wyndham Jaisinghpura (Private - Charger),"Jaisinghpura, Pipala Bharat Singh, Sanganer",8527000290,CCS-IIAC TYPE 2,12:00 AM - 11:59 PM,"https://www.google.com/maps/dir/V3QF%2BWCX,+Uattardhona,+Uttar+Pradesh+226010/26.8251917,75.697539/@26.9051427,73.0908524,6z/data=!4m8!4m7!1m5!1m1!1s0x399be2006c71e24d:0x5989857f6b7db633!2m2!1d81.0738702!2d26.889762!1m0?entry=ttu&g_ep=EgoyMDI1MDQzMC4xIKXMDSoASAFQAw%3D%3D",26.9051427,73.0908524
Rajasthan,Jaipur,Hotel Click (Private - Charger),"Plot No: 549, Nr. LBS College Of Pharmacy, Raja Park",7412053802,CCS-II,10:00 AM - 07:00 PM,"https://www.google.com/maps/dir/V3QF%2BWCX,+Uattardhona,+Uttar+Pradesh+226010/26.8953683,75.8299795/@26.9051427,73.1590878,6z/data=!4m8!4m7!1m5!1m1!1s0x399be2006c71e24d:0x5989857f6b7db633!2m2!1d81.0738702!2d26.889762!1m0?entry=ttu&g_ep=EgoyMDI1MDQzMC4xIKXMDSoASAFQAw%3D%3D",26.9051427,73.1590878
Rajasthan,Jaipur,Hotel The Mango (Private - Charger),"Regenta Inn, 31 B, Govind Marg, Barafkhana Chauraha, Adarsh Nagar",9983055522,CCS-IIAC PLUG POINTAC TYPE 2,12:00 AM - 11:59 PM,"https://www.google.com/maps/dir/V3QF%2BWCX,+Uattardhona,+Uttar+Pradesh+226010/26.8950064,75.830081/@26.9051427,73.1590878,6z/data=!4m8!4m7!1m5!1m1!1s0x399be2006c71e24d:0x5989857f6b7db633!2m2!1d81.0738702!2d26.889762!1m0?entry=ttu&g_ep=EgoyMDI1MDQzMC4xIKXMDSoASAFQAw%3D%3D",26.9051427,73.1590878
Rajasthan,Jaipur,TML - Roshan Motors Charging Station,"B-7, Goving Marg, Raja Park",8527000290,CCS-II,12:00 AM - 11:59 PM,"https://www.google.com/maps/dir/Current+Location/26.9013221,75.835451",26.9013221,75.835451
Rajasthan,Jaipur,Four Points by Sheraton(Privte - Charger),"City Square Mall, Gali No 4, Manav Ashram Colony, Vasundhara Colony, Tonk Phatak",8527000290,CCS-IICHAdeMOAC TYPE 2,24 Hours,"https://www.google.com/maps/dir/V3QF%2BWCX,+Uattardhona,+Uttar+Pradesh+226010/26.864372,75.79577/@26.9051427,73.1419971,6z/data=!3m1!4b1!4m8!4m7!1m5!1m1!1s0x399be2006c71e24d:0x5989857f6b7db633!2m2!1d81.0738702!2d26.889762!1m0?entry=ttu&g_ep=EgoyMDI1MDQzMC4xIKXMDSoASAFQAw%3D%3D",26.9051427,73.1419971
Rajasthan,Jaipur,Kia - Rajesh Motors Charging Station,"Plot #12-13, Nirman Nagar E, Opposite Aso, Pa Hospital, DCM Ajmer Road",8824900971,CCS-II,12:00 AM - 11:59 PM,"https://www.google.com/maps/dir/V3QF%2BWCX,+Uattardhona,+Uttar+Pradesh+226010/26.9549417,75.7431049/@26.9051427,73.1155916,6z/data=!3m1!4b1!4m8!4m7!1m5!1m1!1s0x399be2006c71e24d:0x5989857f6b7db633!2m2!1d81.0738702!2d26.889762!1m0?entry=ttu&g_ep=EgoyMDI1MDQzMC4xIKXMDSoASAFQAw%3D%3D",26.9051427,73.1155916
Rajasthan,Jaipur,Tata Power - Akar Fourwheels Charging Stations,"Niwaru Rd, Kumasiya, Shivaji Nagar, Jhotwara",8527000290,CCS-II,12:00 AM - 11:59 PM,"https://www.google.com/maps/dir/V3QF%2BWCX,+Uattardhona,+Uttar+Pradesh+226010/26.9517524,75.75286/@26.9051427,73.1205455,6z/data=!3m1!4b1!4m8!4m7!1m5!1m1!1s0x399be2006c71e24d:0x5989857f6b7db633!2m2!1d81.0738702!2d26.889762!1m0?entry=ttu&g_ep=EgoyMDI1MDQzMC4xIKXMDSoASAFQAw%3D%3D",26.9051427,73.1205455
Rajasthan,Jaipur,Golden Eagle By Keshav Global Hotels (Private - Charger),"Plot No .5 Patel Nager, 200 Feet Bypass Road, Ajmer, Road Flyover, Patel Nagar",9928611333,CCS-IIAC PLUG POINTCHAdeMOAC TYPE 2,12:00 AM - 11:59 PM,"https://www.google.com/maps/dir/V3QF%2BWCX,+Uattardhona,+Uttar+Pradesh+226010/26.7600398,75.8505054/@26.8839624,73.1635285,6z/data=!4m8!4m7!1m5!1m1!1s0x399be2006c71e24d:0x5989857f6b7db633!2m2!1d81.0738702!2d26.889762!1m0?entry=ttu&g_ep=EgoyMDI1MDQzMC4xIKXMDSoASAFQAw%3D%3D",26.8839624,73.1635285
Rajasthan,Jaipur,Tata Power - Rajasthan hospital Charging Station,"Rajasthan Hospital, Opposite Jaipuria Hospital JLN Marg",8527000290,CCS-IIAC TYPE 2,12:00 AM - 11:59 PM,"https://www.google.com/maps/dir/V3QF%2BWCX,+Uattardhona,+Uttar+Pradesh+226010/26.8756587,75.8102639/@26.9051427,73.1492474,6z/data=!3m1!4b1!4m8!4m7!1m5!1m1!1s0x399be2006c71e24d:0x5989857f6b7db633!2m2!1d81.0738702!2d26.889762!1m0?entry=ttu&g_ep=EgoyMDI1MDQzMC4xIKXMDSoASAFQAw%3D%3D",26.9051427,73.1492474
Rajasthan,Jaipur,Tata Power - Shree shyam Charging Station,"No E/5/B, Road No 1C Vishwakarma Industrial Area",8527000290,CCS-II,10:00 AM - 07:00 PM,"https://www.google.com/maps/dir/V3QF%2BWCX,+Uattardhona,+Uttar+Pradesh+226010/26.972289,75.777332/@26.9051427,73.1290688,6z/data=!3m1!4b1!4m8!4m7!1m5!1m1!1s0x399be2006c71e24d:0x5989857f6b7db633!2m2!1d81.0738702!2d26.889762!1m0?entry=ttu&g_ep=EgoyMDI1MDQzMC4xIKXMDSoASAFQAw%3D%3D",26.9051427,73.1290688
Rajasthan,Jaipur,Tata Power - John Electric Charging Station,"C-25B, John Electric, Malviya Nagar Industrial Area, Malviya Nagar",8740988958,CCS-IIBharat AC001AC TYPE 2,12:00 AM - 11:59 PM,"https://www.google.com/maps/dir/V3QF%2BWCX,+Uattardhona,+Uttar+Pradesh+226010/26.8514997,75.8179974/@26.9051427,73.1531142,6z/data=!3m1!4b1!4m8!4m7!1m5!1m1!1s0x399be2006c71e24d:0x5989857f6b7db633!2m2!1d81.0738702!2d26.889762!1m0?entry=ttu&g_ep=EgoyMDI1MDQzMC4xIKXMDSoASAFQAw%3D%3D",26.9051427,73.1531142
Rajasthan,Jaipur,MG - Gps automobiles Charging Station,"Plot No 2& 3, Choudhary Charan Singh Colony, 4, Tonk Rd, Chaudhary Charan Singh Park, Jagatpura",8448515330,CCS-IICHAdeMOAC TYPE 2,24 Hours,"https://www.google.com/maps/dir/V3QF%2BWCX,+Uattardhona,+Uttar+Pradesh+226010/26.8322218,75.7948173/@26.9051427,73.1410738,6z/data=!3m1!4b1!4m8!4m7!1m5!1m1!1s0x399be2006c71e24d:0x5989857f6b7db633!2m2!1d81.0738702!2d26.889762!1m0?entry=ttu&g_ep=EgoyMDI1MDQzMC4xIKXMDSoASAFQAw%3D%3D",26.9051427,73.1410738
Rajasthan,Jaipur,Tata - Devi Ratn– IHCL SeleQtions,Khasra No 8 & 9 Ballupura Farm,1413507555,CCS-II,12:00 AM - 11:59 PM,"https://www.google.com/maps/dir/V3QF%2BWCX,+Uattardhona,+Uttar+Pradesh+226010/26.9058465,75.8884015/@26.9051427,73.1880784,6z/data=!4m8!4m7!1m5!1m1!1s0x399be2006c71e24d:0x5989857f6b7db633!2m2!1d81.0738702!2d26.889762!1m0?entry=ttu&g_ep=EgoyMDI1MDQzMC4xIKXMDSoASAFQAw%3D%3D",26.9051427,73.1880784
Rajasthan,Jaipur,Tata Power - Hotel Roshan Haveli (Private - Charger),"Kunda Amer, Delhi Road, Near Heera Lal Pattiwala",8527000290,CCS-IIAC TYPE 2,12:00 AM - 11:59 PM,"https://www.google.com/maps/dir/V3QF%2BWCX,+Uattardhona,+Uttar+Pradesh+226010/26.994498,75.876286/@26.9051427,73.1658703,6z/data=!3m1!4b1!4m8!4m7!1m5!1m1!1s0x399be2006c71e24d:0x5989857f6b7db633!2m2!1d81.0738702!2d26.889762!1m0?entry=ttu&g_ep=EgoyMDI1MDQzMC4xIKXMDSoASAFQAw%3D%3D",26.9051427,73.1658703
Rajasthan,Jaipur,Ramanji Hospital & Research Centre -Charging Station,"B-66, Mahal Yojana, Behind Akshya Patra, Jagatpura",9451221341,AC PLUG POINT,12:00 AM - 11:59 PM,"https://www.google.com/maps/dir/V3QF%2BWCX,+Uattardhona,+Uttar+Pradesh+226010/26.8043217,75.85609/@26.9051427,73.1721605,6z/data=!3m1!4b1!4m8!4m7!1m5!1m1!1s0x399be2006c71e24d:0x5989857f6b7db633!2m2!1d81.0738702!2d26.889762!1m0?entry=ttu&g_ep=EgoyMDI1MDQzMC4xIKXMDSoASAFQAw%3D%3D",26.9051427,73.1721605
Rajasthan,Jaipur,TML - First Mobital Charging Station,G1/211 Sitapura Industrial Area,7045181062,CCS-II,10:00 AM - 07:00 PM,"https://www.google.com/maps/dir/V3QF%2BWCX,+Uattardhona,+Uttar+Pradesh+226010/26.7754225,75.8504639/@26.891742,73.1693012,6z/data=!4m8!4m7!1m5!1m1!1s0x399be2006c71e24d:0x5989857f6b7db633!2m2!1d81.0738702!2d26.889762!1m0?entry=ttu&g_ep=EgoyMDI1MDQzMC4xIKXMDSoASAFQAw%3D%3D",26.891742,73.1693012
Rajasthan,Jaipur,Tata Power - Sunlife Infra Projects (Private -Charger),"Plot A-9 Radhaswami Nagar II, Tonk Rd, Beelwa",8527000290,CCS-II,12:00 AM - 11:59 PM,"https://www.google.com/maps/dir/V3QF%2BWCX,+Uattardhona,+Uttar+Pradesh+226010/26.7466997,75.856584/@26.8729702,73.17234,6z/data=!3m1!4b1!4m8!4m7!1m5!1m1!1s0x399be2006c71e24d:0x5989857f6b7db633!2m2!1d81.0738702!2d26.889762!1m0?entry=ttu&g_ep=EgoyMDI1MDQzMC4xIKXMDSoASAFQAw%3D%3D",26.8729702,73.17234
Rajasthan,Jaipur,Ramgarh Lodge - IHCL SeleQtions,"Ramgarh Lodge, Jaipur - IHCL SeleQtions Ramgarh Lake, Jamwa Ramgarh",9521214026,CCS-II,12:00 AM - 11:59 PM,"https://www.google.com/maps/dir/V3QF%2BWCX,+Uattardhona,+Uttar+Pradesh+226010/26.9458938,75.8372902/@26.9051427,73.1627606,6z/data=!4m8!4m7!1m5!1m1!1s0x399be2006c71e24d:0x5989857f6b7db633!2m2!1d81.0738702!2d26.889762!1m0?entry=ttu&g_ep=EgoyMDI1MDQzMC4xIKXMDSoASAFQAw%3D%3D",26.9051427,73.1627606
Rajasthan,Jaipur,Tata Power - Yaksh The Art People Charging Station,"Yaksh, The Art People, Delhi-Jaipur Highway, Syari, Amber",8527000290,CCS-IICHAdeMOAC TYPE 2,12:00 AM - 11:59 PM,"https://www.google.com/maps/dir/V3QF%2BWCX,+Uattardhona,+Uttar+Pradesh+226010/27.159085,75.960384/@26.9171488,73.2242538,6z/data=!4m8!4m7!1m5!1m1!1s0x399be2006c71e24d:0x5989857f6b7db633!2m2!1d81.0738702!2d26.889762!1m0?entry=ttu&g_ep=EgoyMDI1MDQzMC4xIKXMDSoASAFQAw%3D%3D",26.9171488,73.2242538
Rajasthan,Jaipur,Tata Power - Hotels Rajshree Resort Saladwas (Private - Charger),"KHASRA NO.131/1 AND 132/1, VILLAGE SALADWAS, CHANDWAJI, N.H.8 TEHSIL AMER",8527000290,CCS-IIAC TYPE 2,12:00 AM - 11:59 PM,"https://www.google.com/maps/dir/Current+Location/27.2377252,75.948597",27.2377252,75.948597
Rajasthan,Jaipur,TML -ROSHAN MOTORS PVT LTD,"Khasra No 287, Nelka, Virat Nagar Shahpura",8484932306,CCS-II,10:00 AM - 07:00 PM,"https://www.google.com/maps/dir/Current+Location/27.491449,76.048892",27.491449,76.048892
Rajasthan,Jaipur,"Tata Power - Taj Amer, Chimanpura (Private - Charger)","Village Chimanpura, Delhi Highway,Amer, Jaipur",9223581898,CCS-IIAC TYPE 2,12:00 AM - 11:59 PM,"https://www.google.com/maps/dir/V3QF%2BWCX,+Uattardhona,+Uttar+Pradesh+226010/27.016945,75.881193/@26.9051427,73.1658703,6z/data=!3m1!4b1!4m8!4m7!1m5!1m1!1s0x399be2006c71e24d:0x5989857f6b7db633!2m2!1d81.0738702!2d26.889762!1m0?entry=ttu&g_ep=EgoyMDI1MDQzMC4xIKXMDSoASAFQAw%3D%3D",26.9051427,73.1658703
Rajasthan,Jaipur,Taj Amer (Private Charger) Charging Station,"Village Chimanpura, Delhi Highway,Amer",1413503670,AC PLUG POINT,12:00 AM - 11:59 PM,"https://www.google.com/maps/dir/V3QF%2BWCX,+Uattardhona,+Uttar+Pradesh+226010/27.419045,75.914061/@26.9914914,73.1994101,6z/data=!4m8!4m7!1m5!1m1!1s0x399be2006c71e24d:0x5989857f6b7db633!2m2!1d81.0738702!2d26.889762!1m0?entry=ttu&g_ep=EgoyMDI1MDQzMC4xIKXMDSoASAFQAw%3D%3D",26.9914914,73.1994101
Rajasthan,Jaipur,Tata Power - Man Mahal Charging Station,"Bhawani Singh Rd, Rambagh",1413569700,AC TYPE 2,12:00 AM - 11:59 PM,"https://www.google.com/maps/dir/V3QF%2BWCX,+Uattardhona,+Uttar+Pradesh+226010/26.896931,75.804312/@26.9051427,73.1443909,6z/data=!4m8!4m7!1m5!1m1!1s0x399be2006c71e24d:0x5989857f6b7db633!2m2!1d81.0738702!2d26.889762!1m0?entry=ttu&g_ep=EgoyMDI1MDQzMC4xIKXMDSoASAFQAw%3D%3D",26.9051427,73.1443909
Rajasthan,Jaipur,Rajasthan Hospital Charging Station,"Block-E1, JEWEL OF INDIA, Indra Nagar, Basant Vihar, Bajaj Nagar",8527000290,CCS-IIAC TYPE 2,10:00 AM - 11:59 PM,"https://www.google.com/maps/dir/V3QF%2BWCX,+Uattardhona,+Uttar+Pradesh+226010/26.856467,75.802112/@26.9051427,73.1450528,6z/data=!4m8!4m7!1m5!1m1!1s0x399be2006c71e24d:0x5989857f6b7db633!2m2!1d81.0738702!2d26.889762!1m0?entry=ttu&g_ep=EgoyMDI1MDQzMC4xIKXMDSoASAFQAw%3D%3D",26.9051427,73.1450528
Rajasthan,Jaipur,Jeevan Rekha Hospital (Private Charger),"S-24, Jagatpura Getor, Jaipur - 302017 (Near Central Spine Mahal Yojna, Near Akshay Patra Mandir)",7419638697,AC PLUG POINT,12:00 AM - 11:59 PM,"https://www.google.com/maps/dir/V3QF%2BWCX,+Uattardhona,+Uttar+Pradesh+226010/26.800694,75.859911/@26.90418,73.1674847,6z/data=!4m8!4m7!1m5!1m1!1s0x399be2006c71e24d:0x5989857f6b7db633!2m2!1d81.0738702!2d26.889762!1m0?entry=ttu&g_ep=EgoyMDI1MDQzMC4xIKXMDSoASAFQAw%3D%3D",26.90418,73.1674847
Rajasthan,Jaipur,VOLTTIC - Charging Station (Private),"RIICO Industrial Area, Mansarovar",9711829983,GB/T,06:00 AM - 12:00 PM,"https://www.google.com/maps/dir/V3QF%2BWCX,+Uattardhona,+Uttar+Pradesh+226010/26.876377,75.751165/@26.9051427,73.1193608,6z/data=!4m8!4m7!1m5!1m1!1s0x399be2006c71e24d:0x5989857f6b7db633!2m2!1d81.0738702!2d26.889762!1m0?entry=ttu&g_ep=EgoyMDI1MDQzMC4xIKXMDSoASAFQAw%3D%3D",26.9051427,73.1193608
Rajasthan,Jaipur,TATA - Volttic- Charging Station,"Sitapura Industrial Area, Sitapura",9711829983,GB/TIEC 60309,06:00 AM - 12:00 PM,"https://www.google.com/maps/dir/Current+Location/26.792917,75.835154",26.792917,75.835154
Rajasthan,Jaipur,SSPL - Circuit House Charging Station,"Khasa Kothi Circle, M I Road, Gopalbari",1412374455,AC TYPE 2,12:00 AM - 11:59 PM,"https://www.google.com/maps/dir/V3QF%2BWCX,+Uattardhona,+Uttar+Pradesh+226010/26.919765,75.795416/@26.9051427,73.1418235,6z/data=!4m8!4m7!1m5!1m1!1s0x399be2006c71e24d:0x5989857f6b7db633!2m2!1d81.0738702!2d26.889762!1m0?entry=ttu&g_ep=EgoyMDI1MDQzMC4xIKXMDSoASAFQAw%3D%3D",26.9051427,73.1418235
Rajasthan,Jaipur,Statiq - Evershine Tower Charging Station,"F-1, Evershine Tower, Amrapali Marg, Vaishali Nagar",8070743743,CCS-IIAC PLUG POINT,12:00 AM - 11:59 PM,"https://www.google.com/maps/dir/V3QF%2BWCX,+Uattardhona,+Uttar+Pradesh+226010/26.91154,75.745673/@26.9051427,73.116814,6z/data=!4m8!4m7!1m5!1m1!1s0x399be2006c71e24d:0x5989857f6b7db633!2m2!1d81.0738702!2d26.889762!1m0?entry=ttu&g_ep=EgoyMDI1MDQzMC4xIKXMDSoASAFQAw%3D%3D",26.9051427,73.116814
Rajasthan,Jaipur,Statiq - Basant Vihar Charging Station,"A-26, Basant Vihar, Bajari Mandi Road, Vaishali Marg (West) Panchyawala Jaipur",8764150355,CCS-IIAC PLUG POINTAC TYPE 2,12:00 AM - 11:59 PM,"https://www.google.com/maps/dir/V3QF%2BWCX,+Uattardhona,+Uttar+Pradesh+226010/26.916118,75.722968/@26.9051427,73.1055252,6z/data=!4m8!4m7!1m5!1m1!1s0x399be2006c71e24d:0x5989857f6b7db633!2m2!1d81.0738702!2d26.889762!1m0?entry=ttu&g_ep=EgoyMDI1MDQzMC4xIKXMDSoASAFQAw%3D%3D",26.9051427,73.1055252
Rajasthan,Jaipur,Statiq-Sunfuel Jaipur Marriott Hotel ( Private Charger ),"Ashram Marg, Near, Jawahar Circle",1414567777,AC TYPE 2,12:00 AM - 11:59 PM,"https://www.google.com/maps/dir/V3QF%2BWCX,+Uattardhona,+Uttar+Pradesh+226010/26.841949,75.796239/@26.9051427,73.1420513,6z/data=!3m1!4b1!4m8!4m7!1m5!1m1!1s0x399be2006c71e24d:0x5989857f6b7db633!2m2!1d81.0738702!2d26.889762!1m0?entry=ttu&g_ep=EgoyMDI1MDQzMC4xIKXMDSoASAFQAw%3D%3D",26.9051427,73.1420513
Rajasthan,Jaipur,IOCL - Shree Govind Charging Station,"Ground Floor, Mendwas Chakwada",9799699995,Bharat AC001AC TYPE 2,12:00 AM - 11:59 PM,"https://www.google.com/maps/dir/V3QF%2BWCX,+Uattardhona,+Uttar+Pradesh+226010/26.50334,75.470454/@26.7562665,72.9792526,6z/data=!3m1!4b1!4m8!4m7!1m5!1m1!1s0x399be2006c71e24d:0x5989857f6b7db633!2m2!1d81.0738702!2d26.889762!1m0?entry=ttu&g_ep=EgoyMDI1MDQzMC4xIKXMDSoASAFQAw%3D%3D",26.7562665,72.9792526
Rajasthan,Jaipur,IOCL - Jai Shri Salasar Charging Station,"Ground Floor, Gopal Nagar Chittora",9828049700,Bharat AC001AC TYPE 2,12:00 AM - 11:59 PM,"https://www.google.com/maps/dir/V3QF%2BWCX,+Uattardhona,+Uttar+Pradesh+226010/26.571927,75.564394/@26.7904738,73.0251572,6z/data=!3m1!4b1!4m8!4m7!1m5!1m1!1s0x399be2006c71e24d:0x5989857f6b7db633!2m2!1d81.0738702!2d26.889762!1m0?entry=ttu&g_ep=EgoyMDI1MDQzMC4xIKXMDSoASAFQAw%3D%3D",26.7904738,73.0251572
Rajasthan,Jaipur,IOCL - Modern Charging Station,"Ground Floor, Bassi, Jeetawala Boorthal",9414066455,Bharat AC001AC TYPE 2,12:00 AM - 11:59 PM,"https://www.google.com/maps/dir/Current+Location/26.842451,75.97979",26.842451,75.97979
Rajasthan,Jaipur,IOCL - Br Ksk Charging Station,"Ground Floor, Phulera Road Macharkhani",9460356652,Bharat AC001AC TYPE 2,10:00 AM - 07:00 PM,"https://www.google.com/maps/dir/V3QF%2BWCX,+Uattardhona,+Uttar+Pradesh+226010/26.741489,75.755892/@26.8675537,73.1220439,6z/data=!3m1!4b1!4m8!4m7!1m5!1m1!1s0x399be2006c71e24d:0x5989857f6b7db633!2m2!1d81.0738702!2d26.889762!1m0?entry=ttu&g_ep=EgoyMDI1MDQzMC4xIKXMDSoASAFQAw%3D%3D",26.8675537,73.1220439
Rajasthan,Jaipur,IOCL - Meena Service Centre Charging Station,Delhi Road Opposite Laxmi Narayan Puri,9829097134,CCS-IICHAdeMOBharat DC-001,10:00 AM - 07:00 PM,"https://www.google.com/maps/dir/V3QF%2BWCX,+Uattardhona,+Uttar+Pradesh+226010/26.95737,75.735894/@26.9051427,73.1100243,6z/data=!3m1!4b1!4m8!4m7!1m5!1m1!1s0x399be2006c71e24d:0x5989857f6b7db633!2m2!1d81.0738702!2d26.889762!1m0?entry=ttu&g_ep=EgoyMDI1MDQzMC4xIKXMDSoASAFQAw%3D%3D",26.9051427,73.1100243
Rajasthan,Jaipur,IOCL - Rmd Charging Station,"Ground Floor, Parshavnath Colony Ajmer Road",9950151517,Bharat AC001AC TYPE 2,12:00 AM - 11:59 PM,"https://www.google.com/maps/dir/V3QF%2BWCX,+Uattardhona,+Uttar+Pradesh+226010/26.893772,75.747029/@26.9051427,73.11763,6z/data=!4m8!4m7!1m5!1m1!1s0x399be2006c71e24d:0x5989857f6b7db633!2m2!1d81.0738702!2d26.889762!1m0?entry=ttu&g_ep=EgoyMDI1MDQzMC4xIKXMDSoASAFQAw%3D%3D",26.9051427,73.11763
Rajasthan,Jaipur,IOCl - Jwala Charging Station,Sanganer Peepla Bharatsingh,9929646900,Bharat AC001AC TYPE 2,12:00 AM - 11:59 PM,"https://www.google.com/maps/dir/V3QF%2BWCX,+Uattardhona,+Uttar+Pradesh+226010/26.823837,75.700718/@26.9051427,73.0908524,6z/data=!4m8!4m7!1m5!1m1!1s0x399be2006c71e24d:0x5989857f6b7db633!2m2!1d81.0738702!2d26.889762!1m0?entry=ttu&g_ep=EgoyMDI1MDQzMC4xIKXMDSoASAFQAw%3D%3D",26.9051427,73.0908524
Rajasthan,Jaipur,IOCL - Maa Durga Charging Station,"Ground Floor, Newai Road, Madhorajpura 2 Beechi",7737897071,Bharat AC001AC TYPE 2,12:00 AM - 11:59 PM,"https://www.google.com/maps/dir/V3QF%2BWCX,+Uattardhona,+Uttar+Pradesh+226010/26.539712,75.691037/@26.7738198,73.0507977,6z/data=!4m8!4m7!1m5!1m1!1s0x399be2006c71e24d:0x5989857f6b7db633!2m2!1d81.0738702!2d26.889762!1m0?entry=ttu&g_ep=EgoyMDI1MDQzMC4xIKXMDSoASAFQAw%3D%3D",26.7738198,73.0507977
Rajasthan,Jaipur,IOCL - Simpson Charging Station,"Ground Floor, Phagi Harsoooliya Rd, Harsooliya Chittora",9314297384,Bharat AC001AC TYPE 2,12:00 AM - 11:59 PM,"https://www.google.com/maps/dir/V3QF%2BWCX,+Uattardhona,+Uttar+Pradesh+226010/26.677168,75.64462/@26.8400414,73.0663879,6z/data=!4m8!4m7!1m5!1m1!1s0x399be2006c71e24d:0x5989857f6b7db633!2m2!1d81.0738702!2d26.889762!1m0?entry=ttu&g_ep=EgoyMDI1MDQzMC4xIKXMDSoASAFQAw%3D%3D",26.8400414,73.0663879
Rajasthan,Jaipur,IOCL - Sindhu Charging Station,"Ground Floor, Beelwadi Viratnagar",8875876505,Bharat AC001AC TYPE 2,12:00 AM - 11:59 PM,"https://www.google.com/maps/dir/V3QF%2BWCX,+Uattardhona,+Uttar+Pradesh+226010/27.422752,76.104953/@27.4384663,73.2423035,6z/data=!4m8!4m7!1m5!1m1!1s0x399be2006c71e24d:0x5989857f6b7db633!2m2!1d81.0738702!2d26.889762!1m0?entry=ttu&g_ep=EgoyMDI1MDQzMC4xIKXMDSoASAFQAw%3D%3D",27.4384663,73.2423035
Rajasthan,Jaipur,SSPL - State Bank of India(Private - Charger),"Tilak Marg, C Scheme Udyog Bhawan",9223581898,CCS-IICHAdeMOAC TYPE 2Bharat DC-001,12:00 AM - 11:59 PM,"https://www.google.com/maps/dir/V3QF%2BWCX,+Uattardhona,+Uttar+Pradesh+226010/26.901481,75.799033/@26.9051427,73.1429431,6z/data=!4m8!4m7!1m5!1m1!1s0x399be2006c71e24d:0x5989857f6b7db633!2m2!1d81.0738702!2d26.889762!1m0?entry=ttu&g_ep=EgoyMDI1MDQzMC4xIKXMDSoASAFQAw%3D%3D",26.9051427,73.1429431
Rajasthan,Jaipur,BMW Sanghi Classic-Recharge EV Charging Station,"Tonk Rd, Shri Vihar, Muktanand Nagar, Durgapura Jaipur Rajasthan",9001999009,CCS-II,10:00 AM - 07:00 PM,"https://www.google.com/maps/dir/V3QF%2BWCX,+Uattardhona,+Uttar+Pradesh+226010/26.853795,75.794592/@26.9051427,73.1411536,6z/data=!4m8!4m7!1m5!1m1!1s0x399be2006c71e24d:0x5989857f6b7db633!2m2!1d81.0738702!2d26.889762!1m0?entry=ttu&g_ep=EgoyMDI1MDQzMC4xIKXMDSoASAFQAw%3D%3D",26.9051427,73.1411536
Rajasthan,Jaipur,Fortum Charging Station Shiva Dhaba,"Delhi - Jaipur Highway Neelka, Shahpura, Paota",8696964496,CCS-IICCS-I,10:00 AM - 07:00 PM,"https://www.google.com/maps/dir/V3QF%2BWCX,+Uattardhona,+Uttar+Pradesh+226010/27.493874,76.054363/@27.4384663,73.220044,6z/data=!4m8!4m7!1m5!1m1!1s0x399be2006c71e24d:0x5989857f6b7db633!2m2!1d81.0738702!2d26.889762!1m0?entry=ttu&g_ep=EgoyMDI1MDQzMC4xIKXMDSoASAFQAw%3D%3D",27.4384663,73.220044
Rajasthan,Jaipur,Tata Power - Roshan Motors Charging Station,"No B, 7, Govind Marg, Saket Colony, Adarsh Nagar",18002095161,CCS-II,12:00 AM - 11:59 PM,"https://www.google.com/maps/dir/V3QF%2BWCX,+Uattardhona,+Uttar+Pradesh+226010/26.9013221,75.8354512/@26.9051427,73.1606431,6z/data=!3m1!4b1!4m8!4m7!1m5!1m1!1s0x399be2006c71e24d:0x5989857f6b7db633!2m2!1d81.0738702!2d26.889762!1m0?entry=ttu&g_ep=EgoyMDI1MDQzMC4xIKXMDSoASAFQAw%3D%3D",26.9051427,73.1606431
Rajasthan,Jaipur,Tata Power - MG GPS Automobiles Charging Station,"Plot No 2& 3, Choudhary Charan Singh Colony, 4, Tonk Rd, Chaudhary Charan Singh Park",8448515330,CCS-IICHAdeMO,12:00 AM - 11:59 PM,"https://www.google.com/maps/dir/V3QF%2BWCX,+Uattardhona,+Uttar+Pradesh+226010/26.833229,75.794187/@26.9051427,73.1410738,6z/data=!4m8!4m7!1m5!1m1!1s0x399be2006c71e24d:0x5989857f6b7db633!2m2!1d81.0738702!2d26.889762!1m0?entry=ttu&g_ep=EgoyMDI1MDQzMC4xIKXMDSoASAFQAw%3D%3D",26.9051427,73.1410738
Rajasthan,Jaipur,Minibar - Charging Station,"Clarks Collection Jaipur, Vivek Vihar, New Sanganer Road, Sodala",7023333147,CCS-II,12:00 AM - 11:59 PM,"https://www.google.com/maps/dir/V3QF%2BWCX,+Uattardhona,+Uttar+Pradesh+226010/26.8899063,75.7727287/@26.9051427,73.1304798,6z/data=!4m8!4m7!1m5!1m1!1s0x399be2006c71e24d:0x5989857f6b7db633!2m2!1d81.0738702!2d26.889762!1m0?entry=ttu&g_ep=EgoyMDI1MDQzMC4xIKXMDSoASAFQAw%3D%3D",26.9051427,73.1304798
Rajasthan,Jaipur,IOCL - Bairwa Farming Charging Station,"Meena, Ground Floor Agra Road, NH 11, Boorthal",9414044877,Bharat AC001,12:00 AM - 11:59 PM,"https://www.google.com/maps/dir/V3QF%2BWCX,+Uattardhona,+Uttar+Pradesh+226010/26.881649,75.908901/@26.9051427,73.1985612,6z/data=!4m8!4m7!1m5!1m1!1s0x399be2006c71e24d:0x5989857f6b7db633!2m2!1d81.0738702!2d26.889762!1m0?entry=ttu&g_ep=EgoyMDI1MDQzMC4xIKXMDSoASAFQAw%3D%3D",26.9051427,73.1985612
Rajasthan,Jaipur,IOCL - Parakram Charging Station,"Ground Floor, NH 11, Kanota Burthal",9828366664,Bharat AC001,12:00 AM - 11:59 PM,"https://www.google.com/maps/dir/V3QF%2BWCX,+Uattardhona,+Uttar+Pradesh+226010/26.880246,75.917464/@26.9051427,73.202846,6z/data=!4m8!4m7!1m5!1m1!1s0x399be2006c71e24d:0x5989857f6b7db633!2m2!1d81.0738702!2d26.889762!1m0?entry=ttu&g_ep=EgoyMDI1MDQzMC4xIKXMDSoASAFQAw%3D%3D",26.9051427,73.202846
Rajasthan,Jaipur,REIL - Bansal Charging Station,"Plot No 99, Shree Puram Colony, Shripuram Colony, Gurjar Ki Thadi",,Bharat AC001,10:00 AM - 07:00 PM,"https://www.google.com/maps/dir/V3QF%2BWCX,+Uattardhona,+Uttar+Pradesh+226010/26.877139,75.768626/@26.9051427,73.1274208,6z/data=!3m1!4b1!4m8!4m7!1m5!1m1!1s0x399be2006c71e24d:0x5989857f6b7db633!2m2!1d81.0738702!2d26.889762!1m0?entry=ttu&g_ep=EgoyMDI1MDQzMC4xIKXMDSoASAFQAw%3D%3D",26.9051427,73.1274208
Rajasthan,Jaipur,IOCL - Prakash & Company Charging Station,Ground Floor Jhotwara Road Near Chandpol Gate,9314510202,Bharat AC001,10:00 AM - 07:00 PM,"https://www.google.com/maps/dir/V3QF%2BWCX,+Uattardhona,+Uttar+Pradesh+226010/26.914761,75.802111/@26.9051427,73.1444351,6z/data=!4m8!4m7!1m5!1m1!1s0x399be2006c71e24d:0x5989857f6b7db633!2m2!1d81.0738702!2d26.889762!1m0?entry=ttu&g_ep=EgoyMDI1MDQzMC4xIKXMDSoASAFQAw%3D%3D",26.9051427,73.1444351
Rajasthan,Jaipur,Natraj Restaurant Charging Station,"Panch Batti, Mirza Ismail Road",1412361348,Bharat AC001,10:00 AM - 07:00 PM,"https://www.google.com/maps/dir/V3QF%2BWCX,+Uattardhona,+Uttar+Pradesh+226010/26.916708,75.804954/@26.8853726,73.1463557,6z/data=!3m1!4b1!4m8!4m7!1m5!1m1!1s0x399be2006c71e24d:0x5989857f6b7db633!2m2!1d81.0738702!2d26.889762!1m0?entry=ttu&g_ep=EgoyMDI1MDQzMC4xIKXMDSoASAFQAw%3D%3D",26.8853726,73.1463557
Rajasthan,Jaipur,REIL - Ar Traders Charging Station,"B.No 17 Amanisha Ka Nala, Shri Lal Bhadur Shastri Bhatta Basti",9587778616,Bharat AC001,12:00 AM - 11:59 PM,"https://www.google.com/maps/dir/V3QF%2BWCX,+Uattardhona,+Uttar+Pradesh+226010/26.955265,75.794109/@26.9051427,73.1388424,6z/data=!4m8!4m7!1m5!1m1!1s0x399be2006c71e24d:0x5989857f6b7db633!2m2!1d81.0738702!2d26.889762!1m0?entry=ttu&g_ep=EgoyMDI1MDQzMC4xIKXMDSoASAFQAw%3D%3D",26.9051427,73.1388424
Rajasthan,Jaipur,IOCL - Kewlani Charging Station,"Milestone No 215 & 216 Nawalpura, NH-8, Bhangarh",8094444070,Bharat AC001,12:00 AM - 11:59 PM,"https://www.google.com/maps/dir/V3QF%2BWCX,+Uattardhona,+Uttar+Pradesh+226010/27.277589,75.948832/@26.9471521,73.218299,6z/data=!4m8!4m7!1m5!1m1!1s0x399be2006c71e24d:0x5989857f6b7db633!2m2!1d81.0738702!2d26.889762!1m0?entry=ttu&g_ep=EgoyMDI1MDQzMC4xIKXMDSoASAFQAw%3D%3D",26.9471521,73.218299
Rajasthan,Jaipur,IOCL - Tiwari Charging Station,Jaipur Delhi Highway Achrol,9414051034,Bharat DC-001,10:00 AM - 07:00 PM,"https://www.google.com/maps/dir/V3QF%2BWCX,+Uattardhona,+Uttar+Pradesh+226010/26.947278,75.726562/@26.9051427,73.1072521,6z/data=!4m8!4m7!1m5!1m1!1s0x399be2006c71e24d:0x5989857f6b7db633!2m2!1d81.0738702!2d26.889762!1m0?entry=ttu&g_ep=EgoyMDI1MDQzMC4xIKXMDSoASAFQAw%3D%3D",26.9051427,73.1072521
Rajasthan,Jaipur,HPCL - Anand Charging Station,"WQQ5+GJG, Shilp Colony, Jhotwara",2222863900,AC TYPE 2,12:00 AM - 11:59 PM,"https://www.google.com/maps/dir/V3QF%2BWCX,+Uattardhona,+Uttar+Pradesh+226010/26.940174,75.758405/@26.9051427,73.1230598,6z/data=!4m8!4m7!1m5!1m1!1s0x399be2006c71e24d:0x5989857f6b7db633!2m2!1d81.0738702!2d26.889762!1m0?entry=ttu&g_ep=EgoyMDI1MDQzMC4xIKXMDSoASAFQAw%3D%3D",26.9051427,73.1230598
Rajasthan,Jaipur,IOCL - Superintendent Charging Station,Aashayein Central Jail Ghat Gate,9414016899,Bharat DC-001,12:00 AM - 11:59 PM,"https://www.google.com/maps/dir/V3QF%2BWCX,+Uattardhona,+Uttar+Pradesh+226010/26.912988,75.827944/@26.9051427,73.1580875,6z/data=!4m8!4m7!1m5!1m1!1s0x399be2006c71e24d:0x5989857f6b7db633!2m2!1d81.0738702!2d26.889762!1m0?entry=ttu&g_ep=EgoyMDI1MDQzMC4xIKXMDSoASAFQAw%3D%3D",26.9051427,73.1580875
Rajasthan,Jaipur,Tata Power - Hotels Ramada Jaipur North Metal olony (Private - Charger),A1/1/11/12 Metal Colony Sikar Road,8527000290,CCS-IIAC TYPE 2,12:00 AM - 11:59 PM,"https://www.google.com/maps/dir/Current+Location/26.948152,75.773623",26.948152,75.773623
Rajasthan,Jaipur,"Tata Power - Hotel Clarks Collection, Govindpuri (Private - Charger)","18, New Sanganer Rd, Roopvihar, Goverdhan Colony, Shiva Colony, Govindpuri",9223581898,CCS-II,10:00 AM - 07:00 PM,"https://www.google.com/maps/dir/V3QF%2BWCX,+Uattardhona,+Uttar+Pradesh+226010/26.88776,75.7680401/@26.9051427,73.1274885,6z/data=!3m1!4b1!4m8!4m7!1m5!1m1!1s0x399be2006c71e24d:0x5989857f6b7db633!2m2!1d81.0738702!2d26.889762!1m0?entry=ttu&g_ep=EgoyMDI1MDQzMC4xIKXMDSoASAFQAw%3D%3D",26.9051427,73.1274885
Rajasthan,Jaipur,Tata Power - Click Hotel Raja Park (Private - Charger),"Udai Marg, Raja Park",9223581898,CCS-II,12:00 AM - 11:59 PM,"https://www.google.com/maps/dir/Current+Location/26.8923514,75.825707",26.8923514,75.825707
Rajasthan,Jaipur,Tata Power - Johns Charging Station,"C-25/B, Someshwarpuri, Malviya Nagar",8527000290,CCS-IIAC TYPE 2Bharat DC-001,10:00 AM - 07:00 PM,"https://www.google.com/maps/dir/V3QF%2BWCX,+Uattardhona,+Uttar+Pradesh+226010/26.854278,75.830183/@26.9051427,73.1544126,6z/data=!4m8!4m7!1m5!1m1!1s0x399be2006c71e24d:0x5989857f6b7db633!2m2!1d81.0738702!2d26.889762!1m0?entry=ttu&g_ep=EgoyMDI1MDQzMC4xIKXMDSoASAFQAw%3D%3D",26.9051427,73.1544126
Rajasthan,Jaipur,"Tata Power - The Mango Hotels, Adarsh Nagar (Private - Charger)","Regenta Inn, 31-B, Govind Marg, Barfkhana Choraha, Adarsh Nagar",8527000290,CCS-IIAC TYPE 2,12:00 AM - 11:59 PM,"https://www.google.com/maps/dir/V3QF%2BWCX,+Uattardhona,+Uttar+Pradesh+226010/26.900039,75.833952/@26.9051427,73.1606431,6z/data=!3m1!4b1!4m8!4m7!1m5!1m1!1s0x399be2006c71e24d:0x5989857f6b7db633!2m2!1d81.0738702!2d26.889762!1m0?entry=ttu&g_ep=EgoyMDI1MDQzMC4xIKXMDSoASAFQAw%3D%3D",26.9051427,73.1606431
Rajasthan,Jaipur,"Tata Power - Ginger Hotel, Civil Lines (Private - Charger)","Ginger Hotel Jaipur Geejgarh House, Civil Lines, Hawa Sadak",9223581898,CCS-IIAC TYPE 2,12:00 AM - 11:59 PM,"https://www.google.com/maps/dir/V3QF%2BWCX,+Uattardhona,+Uttar+Pradesh+226010/26.9013484,75.785012/@26.9051427,73.1366215,6z/data=!4m8!4m7!1m5!1m1!1s0x399be2006c71e24d:0x5989857f6b7db633!2m2!1d81.0738702!2d26.889762!1m0?entry=ttu&g_ep=EgoyMDI1MDQzMC4xIKXMDSoASAFQAw%3D%3D",26.9051427,73.1366215
Rajasthan,Jaipur,Tata Power - Taj Devi Ratn IHCL SeleQtions (Private - Charger),"Khasra No. 8 & 9, Ballupura Farms, Jamdoli, Agra Road",9223581898,AC TYPE 2,12:00 AM - 11:59 PM,"https://www.google.com/maps/dir/V3QF%2BWCX,+Uattardhona,+Uttar+Pradesh+226010/26.9184872,75.881559/@26.9051427,73.184895,6z/data=!4m8!4m7!1m5!1m1!1s0x399be2006c71e24d:0x5989857f6b7db633!2m2!1d81.0738702!2d26.889762!1m0?entry=ttu&g_ep=EgoyMDI1MDQzMC4xIKXMDSoASAFQAw%3D%3D",26.9051427,73.184895
Rajasthan,Jaipur,Tata Power - Ramgarh Lodge (Private - Charger),"JAIPUR IHCL SELEQTIONS, Jamwa Ramgarh Village",9223581898,CCS-II,12:00 AM - 11:59 PM,"https://www.google.com/maps/dir/V3QF%2BWCX,+Uattardhona,+Uttar+Pradesh+226010/27.047934,76.062108/@26.9051427,73.2738932,6z/data=!4m8!4m7!1m5!1m1!1s0x399be2006c71e24d:0x5989857f6b7db633!2m2!1d81.0738702!2d26.889762!1m0?entry=ttu&g_ep=EgoyMDI1MDQzMC4xIKXMDSoASAFQAw%3D%3D",26.9051427,73.2738932
Rajasthan,Jaipur,"Tata Power - The Rambagh Palace, Bhawani Singh Road (Private - Charger)",Bhawani Singh Road,9223581898,AC TYPE 2,12:00 AM - 11:59 PM,"https://www.google.com/maps/dir/V3QF%2BWCX,+Uattardhona,+Uttar+Pradesh+226010/26.8975043,75.807752/@26.9051427,73.1443909,6z/data=!4m8!4m7!1m5!1m1!1s0x399be2006c71e24d:0x5989857f6b7db633!2m2!1d81.0738702!2d26.889762!1m0?entry=ttu&g_ep=EgoyMDI1MDQzMC4xIKXMDSoASAFQAw%3D%3D",26.9051427,73.1443909
Rajasthan,Jaipur,SSPL - Basant Vihar Charging Station,"A-36 Basant Vihar, Vaishali Marg W",9929559093,CCS-IIAC TYPE 2Wall (BS1363),06:00 AM - 10:00 PM,"https://www.google.com/maps/dir/V3QF%2BWCX,+Uattardhona,+Uttar+Pradesh+226010/26.916015,75.723144/@26.9051427,73.1055652,6z/data=!4m8!4m7!1m5!1m1!1s0x399be2006c71e24d:0x5989857f6b7db633!2m2!1d81.0738702!2d26.889762!1m0?entry=ttu&g_ep=EgoyMDI1MDQzMC4xIKXMDSoASAFQAw%3D%3D",26.9051427,73.1055652
Rajasthan,Jaipur,Statiq - Sitapura Industrial Area Charging Station,"Sitapura Industrial Area, Sitapura",18002089124,AC TYPE 2,06:00 AM - 10:00 PM,"https://www.google.com/maps/dir/V3QF%2BWCX,+Uattardhona,+Uttar+Pradesh+226010/26.779733,75.828225/@26.8941167,73.1568789,6z/data=!3m1!4b1!4m8!4m7!1m5!1m1!1s0x399be2006c71e24d:0x5989857f6b7db633!2m2!1d81.0738702!2d26.889762!1m0?entry=ttu&g_ep=EgoyMDI1MDQzMC4xIKXMDSoASAFQAw%3D%3D",26.8941167,73.1568789
Rajasthan,Jaipur,SSPL- Ganesh Nagar Charging Station,"Ganesh Nagar, Radha Kunj, Dholai",9983301100,CCS-II,12:00 AM - 11:59 PM,"https://www.google.com/maps/dir/V3QF%2BWCX,+Uattardhona,+Uttar+Pradesh+226010/26.835685,75.755927/@26.9051427,73.122079,6z/data=!3m1!4b1!4m8!4m7!1m5!1m1!1s0x399be2006c71e24d:0x5989857f6b7db633!2m2!1d81.0738702!2d26.889762!1m0?entry=ttu&g_ep=EgoyMDI1MDQzMC4xIKXMDSoASAFQAw%3D%3D",26.9051427,73.122079
Rajasthan,Jaipur,Statiq- Jaisinghpura Charging Station,Jaisinghpura Kankroda,18002089124,AC PLUG POINTAC TYPE 2,12:00 AM - 11:59 PM,"https://www.google.com/maps/dir/V3QF%2BWCX,+Uattardhona,+Uttar+Pradesh+226010/26.880699,75.614304/@26.9051427,73.0465028,6z/data=!3m1!4b1!4m8!4m7!1m5!1m1!1s0x399be2006c71e24d:0x5989857f6b7db633!2m2!1d81.0738702!2d26.889762!1m0?entry=ttu&g_ep=EgoyMDI1MDQzMC4xIKXMDSoASAFQAw%3D%3D",26.9051427,73.0465028
Rajasthan,Jaipur,HPCL - KARAN Charging Station,"NH-11 Govindgarh, Tehsil Chomu",2222863900,AC TYPE 2,10:00 AM - 07:00 PM,"https://www.google.com/maps/dir/V3QF%2BWCX,+Uattardhona,+Uttar+Pradesh+226010/27.231551,75.6702/@26.9471521,73.073975,6z/data=!4m8!4m7!1m5!1m1!1s0x399be2006c71e24d:0x5989857f6b7db633!2m2!1d81.0738702!2d26.889762!1m0?entry=ttu&g_ep=EgoyMDI1MDQzMC4xIKXMDSoASAFQAw%3D%3D",26.9471521,73.073975
Rajasthan,Jaipur,Tata Power - Hotel Karma In (Private - Charger),"B-64 , Akshay Patra Chauraha, Near Ramanji Hospital, Jagatpura",8527000290,AC TYPE 2,12:00 AM - 11:59 PM,"https://www.google.com/maps/dir/V3QF%2BWCX,+Uattardhona,+Uttar+Pradesh+226010/26.803342,75.85538/@26.9051427,73.171748,6z/data=!3m1!4b1!4m8!4m7!1m5!1m1!1s0x399be2006c71e24d:0x5989857f6b7db633!2m2!1d81.0738702!2d26.889762!1m0?entry=ttu&g_ep=EgoyMDI1MDQzMC4xIKXMDSoASAFQAw%3D%3D",26.9051427,73.171748
Rajasthan,Jaipur,Tata Power - Global Hotels & Resort(Private - Charger),3 4 5 Ab Patal Nagar 200 Ft Bye Pass Flyover Ajemer Road,8527000290,CCS-IIAC TYPE 2,12:00 AM - 11:59 PM,"https://www.google.com/maps/dir/Current+Location/26.885937,75.732028",26.885937,75.732028
Rajasthan,Jaipur,Tata Power - First Mobital Charging Station,"G1-211, Sitapura Industrial Area, Behind Genpect Tonk Road",8527000290,CCS-II,12:00 AM - 11:59 PM,"https://www.google.com/maps/dir/Current+Location/26.7775967,75.839281",26.7775967,75.839281
Rajasthan,Jaipur,Tata Power - Kendriya Vihar -II (Private - Charger),"Kendriya Vihar 2 Rd,Near Jeevan Rakha Hospital Sec 37 Po Vatika Bidhani",8527000290,AC TYPE 2,10:00 AM - 07:00 PM,"https://www.google.com/maps/dir/Current+Location/26.794976,75.872413",26.794976,75.872413
Rajasthan,Jaipur,Tata Power - Roshan Motors Charging Station,"Shahpura, Roshan Motors, NH-8 Neelka",8527000290,CCS-II,12:00 AM - 11:59 PM,"https://www.google.com/maps/dir/V3QF%2BWCX,+Uattardhona,+Uttar+Pradesh+226010/27.4914624,76.053007/@27.4384663,73.220044,6z/data=!4m8!4m7!1m5!1m1!1s0x399be2006c71e24d:0x5989857f6b7db633!2m2!1d81.0738702!2d26.889762!1m0?entry=ttu&g_ep=EgoyMDI1MDQzMC4xIKXMDSoASAFQAw%3D%3D",27.4384663,73.220044
Rajasthan,Jaipur,Tata Power - Pinkcity FS Bhankrota Charging Station,"Khasra No. 1170 & 1172, Village Bhankrota Kalan",9962394941,CCS-II,10:00 AM - 07:00 PM,"https://www.google.com/maps/dir/Current+Location/26.865887,75.681886",26.865887,75.681886
Rajasthan,Jaipur,Statiq - Hotel Fairmont (Private - Charger),"Hotel Fairmont Jaipur, Riico, 2, Jaipur Engineering College Rd, RIICO Jaipur",9090609069,AC TYPE 2,12:00 AM - 11:59 PM,"https://www.google.com/maps/dir/V3QF%2BWCX,+Uattardhona,+Uttar+Pradesh+226010/27.030714,75.889882/@26.9051427,73.1658703,6z/data=!3m1!4b1!4m8!4m7!1m5!1m1!1s0x399be2006c71e24d:0x5989857f6b7db633!2m2!1d81.0738702!2d26.889762!1m0?entry=ttu&g_ep=EgoyMDI1MDQzMC4xIKXMDSoASAFQAw%3D%3D",26.9051427,73.1658703
Rajasthan,Jaipur,HPCL - The Universal Charging Station,"XP54+2QQ, Opp. Veterinary Hospital, Govindpura, Radhey Vihar Colony",2222863900,AC TYPE 2,12:00 AM - 11:59 PM,"https://www.google.com/maps/dir/Current+Location/26.352307,75.922418",26.352307,75.922418
Rajasthan,Jaipur,IOCL - Shree Satyam Charging Station,"NH 48, Aspura",,Bharat DC-001,12:00 AM - 11:59 PM,"https://www.google.com/maps/dir/V3QF%2BWCX,+Uattardhona,+Uttar+Pradesh+226010/27.4480773,76.0196291/@27.4384663,73.220044,6z/data=!4m8!4m7!1m5!1m1!1s0x399be2006c71e24d:0x5989857f6b7db633!2m2!1d81.0738702!2d26.889762!1m0?entry=ttu&g_ep=EgoyMDI1MDQzMC4xIKXMDSoASAFQAw%3D%3D",27.4384663,73.220044
Rajasthan,Jaipur,Tata Power - IOCL AR Traders Charging Station,"Ground Floor, NH 8, Ajmer Rd, Bichoon, Jaipur, Keria Ka Bas",,CCS-IICHAdeMO,12:00 AM - 11:59 PM,"https://www.google.com/maps/dir/V3QF%2BWCX,+Uattardhona,+Uttar+Pradesh+226010/26.8140674,75.5057762/@26.9051427,72.9967334,6z/data=!4m8!4m7!1m5!1m1!1s0x399be2006c71e24d:0x5989857f6b7db633!2m2!1d81.0738702!2d26.889762!1m0?entry=ttu&g_ep=EgoyMDI1MDQzMC4xIKXMDSoASAFQAw%3D%3D",26.9051427,72.9967334
Rajasthan,Jaipur,HPCL - TIRUPATI Charging Station,"H3CF VJ, Jaipur Road HEER KI BAWADI, Paota",18002333555,Bharat DC-001,12:00 AM - 11:59 PM,"https://www.google.com/maps/dir/V3QF%2BWCX,+Uattardhona,+Uttar+Pradesh+226010/27.572302,76.074019/@27.4384663,73.220044,6z/data=!3m1!4b1!4m8!4m7!1m5!1m1!1s0x399be2006c71e24d:0x5989857f6b7db633!2m2!1d81.0738702!2d26.889762!1m0?entry=ttu&g_ep=EgoyMDI1MDQzMC4xIKXMDSoASAFQAw%3D%3D",27.4384663,73.220044
Rajasthan,Jaipur,HPCL - Dev Kiran Charging Station,"11, Village Pipalkheda NH-Narayan Singh Cir Foot Over Bridge, Rambagh",9799590062,Bharat DC-001,05:00 AM - 11:00 PM,"https://www.google.com/maps/dir/Current+Location/27.02356,76.881039",27.02356,76.881039
Rajasthan,Jaipur,HPCL - AUTO CARE CENTRE BILOUCHI Charging Station,"Village Bilouchi, NH-8 Byepass",9004033168,Bharat DC-001,12:00 AM - 11:59 PM,"https://www.google.com/maps/dir/V3QF%2BWCX,+Uattardhona,+Uttar+Pradesh+226010/27.146101,75.858497/@26.9471521,73.1731389,6z/data=!3m1!4b1!4m8!4m7!1m5!1m1!1s0x399be2006c71e24d:0x5989857f6b7db633!2m2!1d81.0738702!2d26.889762!1m0?entry=ttu&g_ep=EgoyMDI1MDQzMC4xIKXMDSoASAFQAw%3D%3D",26.9471521,73.1731389
Rajasthan,Jaipur,HPCL - Rambagh Charging Station,Opposite Subodh College Tonk Road,1414111333,Bharat DC-001,06:00 AM - 11:59 PM,"https://www.google.com/maps/dir/Current+Location/26.896218,75.809191",26.896218,75.809191
Rajasthan,Jaipur,HPCL - Nirmala Charging Station,"Q6M3 7WX, Dudu Rd",2222863900,AC TYPE 2,12:00 AM - 11:59 PM,"https://www.google.com/maps/dir/V3QF%2BWCX,+Uattardhona,+Uttar+Pradesh+226010/26.78326,75.204868/@26.863473,72.84653,6z/data=!3m1!4b1!4m8!4m7!1m5!1m1!1s0x399be2006c71e24d:0x5989857f6b7db633!2m2!1d81.0738702!2d26.889762!1m0?entry=ttu&g_ep=EgoyMDI1MDQzMC4xIKXMDSoASAFQAw%3D%3D",26.863473,72.84653
Rajasthan,Jaipur,HPCL - HAMARA Charging Station,Village Kanvar KA BAS Post Durjaniawas,9413101211,Bharat AC001,05:00 AM - 11:00 PM,"https://www.google.com/maps/dir/V3QF%2BWCX,+Uattardhona,+Uttar+Pradesh+226010/26.954794,75.56346/@26.9051427,73.0258424,6z/data=!3m1!4b1!4m8!4m7!1m5!1m1!1s0x399be2006c71e24d:0x5989857f6b7db633!2m2!1d81.0738702!2d26.889762!1m0?entry=ttu&g_ep=EgoyMDI1MDQzMC4xIKXMDSoASAFQAw%3D%3D",26.9051427,73.0258424
Rajasthan,Jaipur,IOCL - R.K. Charging Station,"01, Tonk Rd, Jawahar Nagar, Tonk Phatak",9571350341,AC TYPE 2,12:00 AM - 11:59 PM,"https://www.google.com/maps/dir/V3QF%2BWCX,+Uattardhona,+Uttar+Pradesh+226010/26.873825,75.79742/@26.9051427,73.1427532,6z/data=!3m1!4b1!4m8!4m7!1m5!1m1!1s0x399be2006c71e24d:0x5989857f6b7db633!2m2!1d81.0738702!2d26.889762!1m0?entry=ttu&g_ep=EgoyMDI1MDQzMC4xIKXMDSoASAFQAw%3D%3D",26.9051427,73.1427532
Rajasthan,Jaipur,HPCL - SAI Charging Station,Village Heerwala,9829014351,AC TYPE 2,12:00 AM - 11:59 PM,"https://www.google.com/maps/dir/Current+Location/26.897041,75.958904",26.897041,75.958904
Rajasthan,Jaipur,HPCL - Esha Charging Station,"Mokhampura - Phulera Rd, Shyosinghpura, Kandeoli",2222863900,AC TYPE 2,06:00 AM - 10:00 PM,"https://www.google.com/maps/dir/V3QF%2BWCX,+Uattardhona,+Uttar+Pradesh+226010/26.830652,75.270471/@26.8779242,72.8793383,6z/data=!3m1!4b1!4m8!4m7!1m5!1m1!1s0x399be2006c71e24d:0x5989857f6b7db633!2m2!1d81.0738702!2d26.889762!1m0?entry=ttu&g_ep=EgoyMDI1MDQzMC4xIKXMDSoASAFQAw%3D%3D",26.8779242,72.8793383
Rajasthan,Jaipur,Ather Grid - Charging Station,"Gate No. 2, Railway Station, Food Story, 001, Near Jagatpura, Hanuman Colony, Model Town, Jagatpura, 302017",7676600900,CCS-II,07:00 AM - 10:30 PM,"https://www.google.com/maps/dir/V3QF%2BWCX,+Uattardhona,+Uttar+Pradesh+226010/26.840718,75.834088/@26.9051427,73.1588525,6z/data=!3m1!4b1!4m8!4m7!1m5!1m1!1s0x399be2006c71e24d:0x5989857f6b7db633!2m2!1d81.0738702!2d26.889762!1m0?entry=ttu&g_ep=EgoyMDI1MDQzMC4xIKXMDSoASAFQAw%3D%3D",26.9051427,73.1588525
Rajasthan,Jaipur,Statiq Electric - Vehicle Charging Station,"Ground Floor Jtm Mall, Near Jagatpura Flyover, Model Town",1414311100,,07:00 AM - 10:00 PM,"https://www.google.com/maps/dir/V3QF%2BWCX,+Uattardhona,+Uttar+Pradesh+226010/26.837772,75.834003/@26.9051427,73.1610826,6z/data=!4m8!4m7!1m5!1m1!1s0x399be2006c71e24d:0x5989857f6b7db633!2m2!1d81.0738702!2d26.889762!1m0?entry=ttu&g_ep=EgoyMDI1MDQzMC4xIKXMDSoASAFQAw%3D%3D",26.9051427,73.1610826
Rajasthan,Jaipur,Ather-Black Pearl Cafe Charging Station,"S 8/9 Ramnagariya , Shopping Center",7676600900,,10:00 AM - 09:00 PM,"https://www.google.com/maps/dir/V3QF%2BWCX,+Uattardhona,+Uttar+Pradesh+226010/26.822654,75.863183/@26.9051427,73.175707,6z/data=!3m1!4b1!4m8!4m7!1m5!1m1!1s0x399be2006c71e24d:0x5989857f6b7db633!2m2!1d81.0738702!2d26.889762!1m0?entry=ttu&g_ep=EgoyMDI1MDQzMC4xIKXMDSoASAFQAw%3D%3D",26.9051427,73.175707
Rajasthan,Jaipur,Ather-Vinayak Inn Hotel Charging Station,"172, Rohini Nagar 7 No. Chouraha, Mahal Rd, Above ICICI Bank, Jagatpura",7676600900,,10:00 AM - 09:00 PM,"https://www.google.com/maps/dir/V3QF%2BWCX,+Uattardhona,+Uttar+Pradesh+226010/26.825533,75.847112/@26.9051427,73.1676533,6z/data=!3m1!4b1!4m8!4m7!1m5!1m1!1s0x399be2006c71e24d:0x5989857f6b7db633!2m2!1d81.0738702!2d26.889762!1m0?entry=ttu&g_ep=EgoyMDI1MDQzMC4xIKXMDSoASAFQAw%3D%3D",26.9051427,73.1676533
Rajasthan,Jaipur,Ather-Rolls Mania Charging Station,"Mahima Studio Panache, 603 B , Pratap Nagar , Sector 11, Airport Road , Sanganer",7676600900,,10:00 AM - 09:00 PM,"https://www.google.com/maps/dir/V3QF%2BWCX,+Uattardhona,+Uttar+Pradesh+226010/26.821108,75.831345/@26.9051427,73.1597828,6z/data=!3m1!4b1!4m8!4m7!1m5!1m1!1s0x399be2006c71e24d:0x5989857f6b7db633!2m2!1d81.0738702!2d26.889762!1m0?entry=ttu&g_ep=EgoyMDI1MDQzMC4xIKXMDSoASAFQAw%3D%3D",26.9051427,73.1597828
Rajasthan,Jaipur,Ather-Food Story Charging Station,"001 Hanuman Colony , Model Town , Near Jagatpura Railway Station",7676600900,,10:00 AM - 09:00 PM,"https://www.google.com/maps/dir/V3QF%2BWCX,+Uattardhona,+Uttar+Pradesh+226010/26.837477,75.832127/@26.9051427,73.160179,6z/data=!4m8!4m7!1m5!1m1!1s0x399be2006c71e24d:0x5989857f6b7db633!2m2!1d81.0738702!2d26.889762!1m0?entry=ttu&g_ep=EgoyMDI1MDQzMC4xIKXMDSoASAFQAw%3D%3D",26.9051427,73.160179
Rajasthan,Jaipur,Ather-Access Technicals Charging Station,"Shop No. 2, JDA Shopping Centre, Opposite PNB Quarters Park, Vishnupuri, Model Town",7676600900,,10:00 AM - 09:00 PM,"https://www.google.com/maps/dir/V3QF%2BWCX,+Uattardhona,+Uttar+Pradesh+226010/26.847676,75.825258/@26.9051427,73.1564045,6z/data=!4m8!4m7!1m5!1m1!1s0x399be2006c71e24d:0x5989857f6b7db633!2m2!1d81.0738702!2d26.889762!1m0?entry=ttu&g_ep=EgoyMDI1MDQzMC4xIKXMDSoASAFQAw%3D%3D",26.9051427,73.1564045
Rajasthan,Jaipur,Ather-Grid Point Charging Station,"Shop No. 2, JDA Shopping Centre, Opposite PNB Quarters Park, Vishnupuri, Model Town, Jagatpura",7676600900,,10:00 AM - 09:00 PM,"https://www.google.com/maps/dir/Current+Location/26.837459,75.831674",26.837459,75.831674
Rajasthan,Jaipur,Ather-Home Pizza Charging Station,"Kumbha Marg, Sector 10, Sector 8, Sector 6, Pratap Nagar",7676600900,,10:00 AM - 09:00 PM,"https://www.google.com/maps/dir/V3QF%2BWCX,+Uattardhona,+Uttar+Pradesh+226010/26.799565,75.816812/@26.9018778,73.1519719,6z/data=!3m1!4b1!4m8!4m7!1m5!1m1!1s0x399be2006c71e24d:0x5989857f6b7db633!2m2!1d81.0738702!2d26.889762!1m0?entry=ttu&g_ep=EgoyMDI1MDQzMC4xIKXMDSoASAFQAw%3D%3D",26.9018778,73.1519719
Rajasthan,Jaipur,Ather-Jyoti Guest House Charging Station,"8/238, Sector 8, Malviya Nagar",,,10:00 AM - 09:00 PM,"https://www.google.com/maps/dir/V3QF%2BWCX,+Uattardhona,+Uttar+Pradesh+226010/26.843499,75.803766/@26.9051427,73.1451718,6z/data=!4m8!4m7!1m5!1m1!1s0x399be2006c71e24d:0x5989857f6b7db633!2m2!1d81.0738702!2d26.889762!1m0?entry=ttu&g_ep=EgoyMDI1MDQzMC4xIKXMDSoASAFQAw%3D%3D",26.9051427,73.1451718
Rajasthan,Jaipur,Ather-Reflect Chrger Station,"Plot No, 3, Bhawani Singh Rd, C Scheme, Ashok Nagar",8066465757,,11:59 PM - 12:00 AM,"https://www.google.com/maps/dir/V3QF%2BWCX,+Uattardhona,+Uttar+Pradesh+226010/26.900997,75.796544/@26.9051427,73.1406283,6z/data=!3m1!4b1!4m8!4m7!1m5!1m1!1s0x399be2006c71e24d:0x5989857f6b7db633!2m2!1d81.0738702!2d26.889762!1m0?entry=ttu&g_ep=EgoyMDI1MDQzMC4xIKXMDSoASAFQAw%3D%3D",26.9051427,73.1406283
Rajasthan,Jaipur,Statiq-Hilton Jaipur Charging Station-Bais Godam,"42, Behind Hotel Premises, Grand Geejgarh, Hawa Sadak, Geejgarh Vihar Colony, Bais Godam",8066465757,AC TYPE 2,12:00 AM - 12:00 PM,"https://www.google.com/maps/dir/V3QF%2BWCX,+Uattardhona,+Uttar+Pradesh+226010/26.909198,75.7823206/@26.9051427,73.1349972,6z/data=!3m1!4b1!4m8!4m7!1m5!1m1!1s0x399be2006c71e24d:0x5989857f6b7db633!2m2!1d81.0738702!2d26.889762!1m0?entry=ttu&g_ep=EgoyMDI1MDQzMC4xIKXMDSoASAFQAw%3D%3D",26.9051427,73.1349972
Rajasthan,Jaipur,Statiq - JEM Mall Charging Station,"Mansarovar Link Road, Infront Of JEM Mall, Mohan Nagar, Usha Vihar, Triveni Nagar, Arjun Nagar",8070743743,AC PLUG POINTDC,10:00 AM - 08:00 PM,"https://www.google.com/maps/dir/V3QF%2BWCX,+Uattardhona,+Uttar+Pradesh+226010/26.87178,26.87178/@19.443699,8.1121876,3z/data=!3m1!4b1!4m8!4m7!1m5!1m1!1s0x399be2006c71e24d:0x5989857f6b7db633!2m2!1d81.0738702!2d26.889762!1m0?entry=ttu&g_ep=EgoyMDI1MDQzMC4xIKXMDSoASAFQAw%3D%3D",19.443699,8.1121876
Rajasthan,Jaipur,Statiq - Blackstone Hotel Charging Station,"A-20, Iskcon Rd, Ganesh Nagar, Radha Kunj, Mansarovar",8574050505,DC,12:00 AM - 11:59 PM,"https://www.google.com/maps/dir/V3QF%2BWCX,+Uattardhona,+Uttar+Pradesh+226010/26.8358463,75.755906/@26.9051427,73.1220685,6z/data=!4m8!4m7!1m5!1m1!1s0x399be2006c71e24d:0x5989857f6b7db633!2m2!1d81.0738702!2d26.889762!1m0?entry=ttu&g_ep=EgoyMDI1MDQzMC4xIKXMDSoASAFQAw%3D%3D",26.9051427,73.1220685
Rajasthan,Jaipur,Statiq - AdWall ITC Mementos,"Khasra No. 66, Near Kukas, Natata, Amer Chak No.2",,AC TYPE 1,12:00 AM - 11:59 PM,"https://www.google.com/maps/dir/V3QF%2BWCX,+Uattardhona,+Uttar+Pradesh+226010/27.0186771,75.8976199/@26.9051427,73.1658703,6z/data=!3m1!4b1!4m8!4m7!1m5!1m1!1s0x399be2006c71e24d:0x5989857f6b7db633!2m2!1d81.0738702!2d26.889762!1m0?entry=ttu&g_ep=EgoyMDI1MDQzMC4xIKXMDSoASAFQAw%3D%3D",26.9051427,73.1658703
Rajasthan,Jaisalmer,IOCL - N S Champawat Charging Station,"Ground Floor, Pokhran Bagthal Near PHED Office",9414469724,Bharat AC001AC TYPE 2,12:00 AM - 11:59 PM,"https://www.google.com/maps/dir/Current+Location/26.927156,71.901738",26.927156,71.901738
Rajasthan,Jalore,IOCL - Shree Baijnath Charging Station,"Khasra No 1873/1853, Mudtara Sili, Jaswantpura Boogaon",9782499055,Bharat AC001AC TYPE 2,12:00 AM - 11:59 PM,"https://www.google.com/maps/dir/Current+Location/24.802231,72.459952",24.802231,72.459952
Rajasthan,Jalore,IOCL - Anjani Petroleum Charging Station,M/S Anjani Petroleums Shno. 31Lock No:14013 Tehsil: Raniwara,,Bharat AC001AC TYPE 2,12:00 AM - 11:59 PM,"https://www.google.com/maps/dir/Current+Location/24.750066,72.20438",24.750066,72.20438
Rajasthan,Jalore,IOCL - Balaji Jalore Charging Station,(Lock-11020) Lal Ji Ki Dungri Distt. Jalore Rajasthan,,Bharat AC001AC TYPE 2,12:00 AM - 11:59 PM,"https://www.google.com/maps/dir/Current+Location/24.738556,72.270491",24.738556,72.270491
Rajasthan,Jalore,IOCL - Dev Guru Petroleum,Village - Godan Tehsil - Ahore,,Bharat AC001AC TYPE 2,12:00 AM - 11:59 PM,"https://www.google.com/maps/dir/Current+Location/25.376242,72.712557",25.376242,72.712557
Rajasthan,Jalore,IOCL - Rajeshwar Charging Station,"Ground Floor, Keshwana Jalore Road Sanfada",7230885795,Bharat AC001AC TYPE 2,12:00 AM - 11:59 PM,"https://www.google.com/maps/dir/V3QF%2BWCX,+Uattardhona,+Uttar+Pradesh+226010/25.395628,72.537446/@26.173259,71.5121135,6z/data=!3m1!4b1!4m8!4m7!1m5!1m1!1s0x399be2006c71e24d:0x5989857f6b7db633!2m2!1d81.0738702!2d26.889762!1m0?entry=ttu&g_ep=EgoyMDI1MDQzMC4xIKXMDSoASAFQAw%3D%3D",26.173259,71.5121135
Rajasthan,Jalore,IOCL - Kalka Charging Station,"Khasra No 99, Janipur Chitalwana",9660168970,Bharat AC001AC TYPE 2,12:00 AM - 11:59 PM,"https://www.google.com/maps/dir/Current+Location/24.908971,71.659272",24.908971,71.659272
Rajasthan,Jalore,HPCL - Gaurav Charging Station,"Opp. Vrindavan Hotel Khasara No 695, Bagoda Rd",2222863900,AC TYPE 2,12:00 AM - 11:59 PM,"https://www.google.com/maps/dir/Current+Location/25.362209,72.605449",25.362209,72.605449
Rajasthan,Jhalawar,IOCL - Rajdiya Charging Station,Ground Floor Gangdhar,7740953333,Bharat AC001AC TYPE 2,12:00 AM - 11:59 PM,"https://www.google.com/maps/dir/V3QF%2BWCX,+Uattardhona,+Uttar+Pradesh+226010/23.94082,75.621954/@25.3629196,73.0543854,6z/data=!3m1!4b1!4m8!4m7!1m5!1m1!1s0x399be2006c71e24d:0x5989857f6b7db633!2m2!1d81.0738702!2d26.889762!1m0?entry=ttu&g_ep=EgoyMDI1MDQzMC4xIKXMDSoASAFQAw%3D%3D",25.3629196,73.0543854
Rajasthan,Jhalawar,IOCL - Harihar Charging Station,"Ground Floor, Suwasra Gangdhar Road, Sakariya Bardia Beerji",18002333555,Bharat AC001AC TYPE 2,12:00 AM - 11:59 PM,"https://www.google.com/maps/dir/Current+Location/24.705234,73.933672",24.705234,73.933672
Rajasthan,Jhalawar,IOCL - Khatu Shyam Charging Station,"Khasra No 486/485, Borda, Badwad Aklera",9588864584,Bharat AC001AC TYPE 2,12:00 AM - 11:59 PM,"https://www.google.com/maps/dir/Current+Location/24.971972,74.563131",24.971972,74.563131
Rajasthan,Jhalawar,IOCL - Parikshit Charging Station,"Ground Floor, Jhalrapatan Road Bhanwarsa",9829705587,Bharat AC001AC TYPE 2,12:00 AM - 11:59 PM,"https://www.google.com/maps/dir/V3QF%2BWCX,+Uattardhona,+Uttar+Pradesh+226010/25.287657,76.705487/@25.9627673,76.2152904,7z/data=!4m8!4m7!1m5!1m1!1s0x399be2006c71e24d:0x5989857f6b7db633!2m2!1d81.0738702!2d26.889762!1m0?entry=ttu&g_ep=EgoyMDI1MDQzMC4xIKXMDSoASAFQAw%3D%3D",25.9627673,76.2152904
Rajasthan,Jhunjhunu,"Tata Power - Sunshine Resort, Sikar Loharu State Highway (Private -Charger)","Sunshine Resort, Near Agrasen Circle, Sikar Loharu State Highway",8527000290,CCS-IIAC TYPE 2,12:00 AM - 11:59 PM,"https://www.google.com/maps/dir/V3QF%2BWCX,+Uattardhona,+Uttar+Pradesh+226010/28.14202,75.410938/@27.4384663,72.9498362,6z/data=!3m1!4b1!4m8!4m7!1m5!1m1!1s0x399be2006c71e24d:0x5989857f6b7db633!2m2!1d81.0738702!2d26.889762!1m0?entry=ttu&g_ep=EgoyMDI1MDQzMC4xIKXMDSoASAFQAw%3D%3D",27.4384663,72.9498362
Rajasthan,Jhunjhunu,IOCL - Bhavya Ksk Charging Station,Indian Oil Petrol Pump Vil. Kasimpura Bager To Mandrela Road Lamba,9461510289,Bharat AC001AC TYPE 2,12:00 AM - 11:59 PM,"https://www.google.com/maps/dir/V3QF%2BWCX,+Uattardhona,+Uttar+Pradesh+226010/28.221896,75.464848/@27.4384663,72.9767912,6z/data=!3m1!4b1!4m8!4m7!1m5!1m1!1s0x399be2006c71e24d:0x5989857f6b7db633!2m2!1d81.0738702!2d26.889762!1m0?entry=ttu&g_ep=EgoyMDI1MDQzMC4xIKXMDSoASAFQAw%3D%3D",27.4384663,72.9767912
Rajasthan,Jhunjhunu,IOCL - Birmi Charging Station,Sh-37 Village - Birmi Tehsil - Malsisar Bidasar,7297999008,Bharat AC001AC TYPE 2,12:00 AM - 11:59 PM,"https://www.google.com/maps/dir/Current+Location/28.190856,75.182644",28.190856,75.182644
Rajasthan,Jhunjhunu,IOCL - Triveni Ksk Charging Station,Indian Oil Petrol Pump Village Khirod Tehsil-Nawalgarh,9928616006,Bharat AC001AC TYPE 2,10:00 AM - 07:00 PM,"https://www.google.com/maps/dir/Current+Location/27.669568,75.243498",27.669568,75.243498
Rajasthan,Jhunjhunu,IOCL - Royal Charging Station,"Ground Floor, Tikar, NH 12 Abusar",9414276786,Bharat AC001AC TYPE 2,12:00 AM - 11:59 PM,"https://www.google.com/maps/dir/V3QF%2BWCX,+Uattardhona,+Uttar+Pradesh+226010/25.706895,75.403518/@26.3577387,72.9344977,6z/data=!4m8!4m7!1m5!1m1!1s0x399be2006c71e24d:0x5989857f6b7db633!2m2!1d81.0738702!2d26.889762!1m0?entry=ttu&g_ep=EgoyMDI1MDQzMC4xIKXMDSoASAFQAw%3D%3D",26.3577387,72.9344977
Rajasthan,Jhunjhunu,Bolt - Pilani Charging Station,"Pilani, BITS Pilani Campus",8447746385,Bharat DC-001Socket3PIN,06:00 AM - 10:00 PM,"https://www.google.com/maps/dir/V3QF%2BWCX,+Uattardhona,+Uttar+Pradesh+226010/28.379723,75.608535/@27.4706505,73.0478861,6z/data=!4m8!4m7!1m5!1m1!1s0x399be2006c71e24d:0x5989857f6b7db633!2m2!1d81.0738702!2d26.889762!1m0?entry=ttu&g_ep=EgoyMDI1MDQzMC4xIKXMDSoASAFQAw%3D%3D",27.4706505,73.0478861
Rajasthan,Jhunjhunu,IOCL - Shri Pemaram Charging Station,"Ground Floor, Nawaldi, Nawalri Barwasi",9468648103,Bharat AC001AC TYPE 2,12:00 AM - 11:59 PM,"https://www.google.com/maps/dir/V3QF%2BWCX,+Uattardhona,+Uttar+Pradesh+226010/27.884484,75.298491/@27.4384663,72.8935445,6z/data=!4m8!4m7!1m5!1m1!1s0x399be2006c71e24d:0x5989857f6b7db633!2m2!1d81.0738702!2d26.889762!1m0?entry=ttu&g_ep=EgoyMDI1MDQzMC4xIKXMDSoASAFQAw%3D%3D",27.4384663,72.8935445
Rajasthan,Jodhpur,Hotel Jhalamand Garh (Private - Charger),"Post Office Guda Road Bypass, Jhalamand,(Near New High Court)",6384432518,CCS-II,12:00 AM - 11:59 PM,"https://www.google.com/maps/dir/Current+Location/26.216006,73.043354",26.216006,73.043354
Rajasthan,Jodhpur,"Tata Power - Taj Hari Mahal, Jodhpur (Private - Charger)",Taj Hari Mahal 5th Residency Rd,9223581898,CCS-IIAC TYPE 2,12:00 AM - 11:59 PM,"https://www.google.com/maps/dir/Current+Location/26.2678135,73.019935",26.2678135,73.019935
Rajasthan,Jodhpur,IOCL - Shivaay Charging Station,"Khasra No 407/2, Palli, Lohawat",9983751754,Bharat AC001AC TYPE 2,12:00 AM - 11:59 PM,"https://www.google.com/maps/dir/Current+Location/26.332632,73.037907",26.332632,73.037907
Rajasthan,Jodhpur,IOCL - Mahadev Charging Station,"Khasra No 1590, Kanasar, Baap Bari Sidh",9983226701,Bharat AC001AC TYPE 2,12:00 AM - 11:59 PM,"https://www.google.com/maps/dir/Current+Location/27.432671,72.165259",27.432671,72.165259
Rajasthan,Jodhpur,IOCL - Mahadev Charging Station,"Khasra No 115/31, Bigmi Osian",9413571222,Bharat AC001AC TYPE 2,12:00 AM - 11:59 PM,"https://www.google.com/maps/dir/Current+Location/26.648169,72.935136",26.648169,72.935136
Rajasthan,Jodhpur,IOCL - Mahadev Charging Station,"Khasra No 535/1, Uday Nagar, Bapini Khichan",9828344127,Bharat AC001AC TYPE 2,12:00 AM - 11:59 PM,"https://www.google.com/maps/dir/Current+Location/26.992401,72.973924",26.992401,72.973924
Rajasthan,Jodhpur,IOCL - Baba Ramdev Charging Station,Village - Harlaya Tehsil - Osian,9829169100,Bharat AC001AC TYPE 2,12:00 AM - 11:59 PM,"https://www.google.com/maps/dir/Current+Location/26.852511,72.698648",26.852511,72.698648
Rajasthan,Jodhpur,IOCL - Shree Mahalaxmi Charging Station,"Khasra No 598/301, Malawas, Pipar City Chopra Bazar",9099973475,Bharat AC001AC TYPE 2,12:00 AM - 11:59 PM,"https://www.google.com/maps/dir/Current+Location/26.388367,73.529777",26.388367,73.529777
Rajasthan,Jodhpur,IOCL - Prabhu Dayal Charging Station,"Ground Floor, Devatra, Pipar Road Bhopalgarh",9414544366,Bharat AC001AC TYPE 2,12:00 AM - 11:59 PM,"https://www.google.com/maps/dir/Current+Location/26.652607,73.491637",26.652607,73.491637
Rajasthan,Jodhpur,IOCL - Siddheshwar Charging Station,"Khasra No 931/84, Bala, Tilwasni Pipar City",7976674066,Bharat AC001AC TYPE 2,12:00 AM - 11:59 PM,"https://www.google.com/maps/dir/Current+Location/26.236365,73.012649",26.236365,73.012649
Rajasthan,Jodhpur,IOCL - Foji Charging Station,"Ground Floor, Baingti Khurd, NH 11 Phalodi",8529730291,Bharat AC001AC TYPE 2,12:00 AM - 11:59 PM,"https://www.google.com/maps/dir/Current+Location/27.11215,72.190246",27.11215,72.190246
Rajasthan,Jodhpur,IOCL - Haji Umar Charging Station,"Khasra No 191/2, Phalodi Naya Bazar, Haji Nagar Bap",9928172787,Bharat AC001AC TYPE 2,12:00 AM - 11:59 PM,"https://www.google.com/maps/dir/Current+Location/27.375072,72.347419",27.375072,72.347419
Rajasthan,Jodhpur,IOCL - Jay Petroleum Charging Station,"Ground Floor NH 15, Phalodi, Naya Bazar, Adarsh Nagar",9413329506,Bharat AC001AC TYPE 2,12:00 AM - 11:59 PM,"https://www.google.com/maps/dir/Current+Location/27.131961,72.359754",27.131961,72.359754
